STATION_ID;STATION_NAME;HOEHE;GEO_BREITE;GEO_LAENGE;2015-1-1;2015-1-2;2015-1-3;2015-1-4;2015-1-5;2015-1-6;2015-1-7;2015-1-8;2015-1-9;2015-1-10;2015-1-11;2015-1-12;2015-1-13;2015-1-14;2015-1-15;2015-1-16;2015-1-17;2015-1-18;2015-1-19;2015-1-20;2015-1-21;2015-1-22;2015-1-23;2015-1-24;2015-1-25;2015-1-26;2015-1-27;2015-1-28;2015-1-29;2015-1-30;2015-1-31
3927;Pfullendorf;630;47.9344;9.2869;;;;;;;;;;;;;;;;;;;;;;;;;;;;;;;
3925;Pforzheim-Ispringen;333;48.9318;8.6959;;;;;;;;;;;;;;;;;;;;;;;;;;;;;;;
164;Angermünde;54;53.0316;13.9907;2.65;0.46;0.06;1.9;0;0;0.18;0;0;0;0.4;0;0.16;2.71;0;2.08;2;5.46;0;0;0;0;0.51;0;0;0;0.1;0.11;3.23;0;0.51
4024;Putbus;40;54.3643;13.477;0;1.01;0;5.05;0;4.95;1.03;0;0.66;0;1.83;0;0;0.83;0;3.58;5.73;3.06;0;0;0;0;0;0.2;3.75;0;0;0;1.15;0;0
5562;Neubulach-Oberhaugstett;570;48.6516;8.6801;0;0;0;2.96;7.66;6.45;1.95;0.06;0;1.76;1.2;1.31;7.38;0.21;0.03;0;0;1.5;0.36;0;0;0;0;0.38;0.28;0;2.03;0;0.56;3.08;2.05
15207;Schauenburg-Elgershausen;317;51.2835;9.359;0.5;0.75;0;1.83;5.1;2.23;0.2;0;0;0.33;0.5;0;3.95;0.23;0.08;0;1.61;0.15;0;0;2.6;0;0;0;0.13;0;1.6;0;0.21;0.15;0.5
167;Anklam;9;53.8412;13.6846;0;1.3;0;3.28;0;4.16;0.31;0;0.43;0;2.81;0;0;0.61;0;5.73;4.81;4.56;0;0;0;1.38;1.48;0;1.5;0;0;0;2.26;0;0
5825;Berge;40;52.6198;12.7867;5.73;0.96;0;3.01;0;0;0;0;0;0;0.11;0;1.5;3.26;0;2.71;1.13;7.35;1.93;0;0;0;0;2;0;0.18;0;1.63;2.83;0;1.51
3552;Neuruppin;38;52.9037;12.8072;5.31;0.41;0.5;3.68;0;0;0.01;0;0;0.01;0.18;0;0.63;2.75;0;4.03;2.08;5.8;4.15;0;0;0;0;1.26;0;0;0.1;1.78;1.68;0;1.41
3254;Meppen;19;52.7156;7.3176;1.6;;;4.5;0.9;0;4.6;0;0;0;0.4;0;0;0;0;3.7;6.4;0;0;2;0;0.4;0;0.8;0.1;0;;0;0.1;0;
3257;Mergentheim, Bad-Neunkirchen;250;49.4773;9.7623;;;;;;;;;;;;;;;;;;;;;;;;;;;;;;;
3857;Oy-Mittelberg-Petersthal;885;47.636;10.3891;;;;;;;;;;;;;;;;;;;;;;;;;;;;;;;
1255;Eppingen-Elsenz;220;49.1664;8.8523;0;0;0;0.3;7.53;6.05;0;0;0.15;0.6;1.18;0;7.33;0.61;0.21;0;0;0;1.66;0;0;0;0;0;0;0;1.11;0.08;1.08;2.11;0.16
342;Belm;103;52.317;8.1693;4.1;0.43;0;3.91;1.01;0;2.03;0;0;0;0.55;0;0;0.16;0;1.73;5;0;0.01;1.25;4.38;0;0.05;0;0;0;1.45;0.1;0.7;0.03;0.1
817;Burgwald-Bottendorf;293;51.0306;8.8146;;;;;;;;;;;;;;;;;;;;;;;;;;;;;;;
5229;Villingen-Schwenningen;720;48.0452;8.4608;;;;;;;;;;;;;;;;;;;;;;;;;;;;;;;
2856;Langenlipsdorf;91;51.9173;13.0878;;;;;;;;;;;;;;;;;;;;;;;;;;;;;;;
1490;Friedrichshafen;394;47.6452;9.4795;;;;;;;;;;;;;;;;;;;;;;;;;;;;;;;
4177;Rheinstetten;116;48.9726;8.3302;0;0;0;3.65;7.35;4.03;0;0.06;0;0.58;2.16;0;6.5;0.01;0.06;0;0;0;0.25;0;1.05;0;0;0;0;0;2.15;0.03;0.53;0.35;0.31
6157;Wangerland-Hooksiel;8;53.6409;8.081;;;;;;;;;;;;;;;;;;;;;;;;;;;;;;;
6158;Weidenbach-Weiherschneidbach;455;49.2247;10.6084;0;0;0;0;6.5;5.2;0;0;0;1.13;1.26;0.01;8.05;0.38;0;0.48;0;5.4;2.56;0;0;0;0;0;0.48;0;0.1;0.55;2.33;0.2;0.05
6159;Dörpen;8;52.9542;7.3196;0.38;2.55;0.03;4.18;0;0;5.2;0;0;0;1.66;0;0;0.41;0;5.33;7.15;0;0;2.03;1.18;3.53;0;1.41;0.13;0;2.16;0;0.18;2.16;6.7
6093;Wendisch Evern;62;53.2138;10.4704;;;;;;;;;;;;;;;;;;;;;;;;;;;;;;;
2319;Holzkirchen;685;47.8823;11.6962;;;;;;;;;;;;;;;;;;;;;;;;;;;;;;;
5300;Waldems-Reinborn;380;50.2599;8.3602;;;;;;;;;;;;;;;;;;;;;;;;;;;;;;;
2315;Holzdorf (Flugplatz);81;51.7657;13.1666;5.7;0;0;2.9;0;0;0;0;0;0.1;0.5;0;6.1;2.5;0;0;0;6.8;0;0;3;0;0;0;0;1;0;0.6;2.7;0;0.7
5856;Fürstenzell;476;48.5451;13.3531;0;0.11;0.31;0.01;0;3.05;0;0.08;0;1.1;0.3;0.31;7.85;0.05;0.5;3.18;0;0;0.4;0;0.68;1.36;0;0;0;0;0.06;1.03;2.3;0;2.41
298;Barth;3;54.3406;12.7108;0.01;1.91;0;3.6;0;0.61;2.58;0;1.01;0;1.21;0;0;1.08;0;3.15;5.73;2.06;2.23;0;3.1;1.31;3.03;2.63;5.21;0;0.03;0;0.1;0;0
1666;Glücksburg-Meierwik;27;54.8273;9.5057;0;1.5;0;5.3;0;0;2.6;0;0;0.2;0.4;0;0;1.4;0;0.6;3.6;0;0;0;0;5.6;0;1.1;1.3;0;3.7;0;;2;1.3
294;Barsinghausen-Hohenbostel;110;52.3198;9.4299;;;;;;;;;;;;;;;;;;;;;;;;;;;;;;;
591;Boizenburg;45;53.3911;10.6878;3.55;0.73;0.1;4.53;0;0;1.88;0;0;0;0;0;0;1.28;0;3.45;6.16;0;2.21;0;0;0;0;0.33;2.1;0;3.1;0;0.95;0;3.01
198;Artern;164;51.3745;11.292;5.96;0.2;0;0.81;0.66;4.53;1.66;0;0.23;0.95;1.63;0;5.93;1.73;0.58;0.06;2.25;5.46;0;0;4.23;0;0;1.53;1.3;0;2.5;0.35;2.31;0.31;0.23
596;Boltenhagen;15;54.0028;11.1908;0.93;0.65;0;4.53;0;0;3.73;0;0.15;0;0.38;0;0;1.58;0;4.25;6.31;0.1;1.65;0;1.76;0;0.03;0.65;6.1;0;5.98;0;0.2;0.03;4.45
4323;Ruppertsecken;461;49.6467;7.8835;;;;;;;;;;;;;;;;;;;;;;;;;;;;;;;
191;Arnstein-Müdesheim;220;49.9695;9.9113;;;;;;;;;;;;;;;;;;;;;;;;;;;;;;;
3679;Kiefersfelden-Gach;518;47.6185;12.1666;;;;;;;;;;;;;;;;;;;;;;;;;;;;;;;
4651;Seesen;186;51.9044;10.1888;;;;;;;;;;;;;;;;;;;;;;;;;;;;;;;
2829;Landsberg (Flugplatz);621;48.0772;10.9144;;;;0;;;;;;;;;;;;;;;;;;;;;;;;;;;
4559;Schorndorf-Knöbling;399;49.1646;12.6176;;;;;;;;;;;;;;;;;;;;;;;;;;;;;;;
2542;Kaufbeuren;716;47.8652;10.6007;;;;;;;;;;;;;;;;;;;;;;;;;;;;;;;
3028;Lippspringe, Bad;157;51.7855;8.8388;6.13;0.3;0;0;0.81;0.06;0.48;0;0;0;0.16;0;0.91;1.15;0;0.76;2.06;0.98;0;0;5.7;0;0;0;0;0;0.26;0.55;1.48;0;0
3023;Lingen;22;52.5181;7.3081;2.68;1.5;0;4.56;1.71;0.11;5;0;0;0;0.48;0;0;0;0;3.03;5.53;0;0;0.66;0.78;0;0;1.01;0.1;0;2.46;0;0.18;0.35;3.66
2985;Lichtenhain-Mittelndorf;321;50.9383;14.2093;4.31;0;0;0.06;0;0.11;0;0;0;0.5;0.05;0;7.71;1.35;0.11;1.2;0;6.51;0.4;0;0;0;0;0;0;1.8;0;1.7;3.38;0.55;0.16
2385;Idar-Oberstein;376;49.6927;7.3264;;;;;;;;;;;;;;;;;;;;;;;;;;;;;;;
2261;Hof;565;50.3122;11.8761;1.06;0;0;0.01;4.01;5.08;0;0;0;0.68;0.68;0;7;0.73;0.16;0.63;0;1.98;0;0;2.71;0;0;0;0.01;0;0.13;0;0.61;0.28;0
1103;Ebersberg-Halbing;592;48.1002;11.9872;;;;;;;;;;;;;;;;;;;;;;;;;;;;;;;
1339;Faßberg;73;52.9157;10.1885;;;;;0;;;0;;;;;;;1.3;;;1.3;;;0;;;;;;;0.1;;;
2444;Jena (Sternwarte);155;50.9251;11.583;;;;;;;;;;;;;;;;;;;;;;;;;;;;;;;
5009;Teterow;38;53.761;12.5574;0.55;1.3;0.28;3.03;0;0;1.01;0;0.05;0;1.1;0;0;0.95;0;5.46;6.06;2;3.38;0;1.61;0;5.2;2.58;4.13;0;0.5;0;0.88;0;0.8
445;Bernburg/Saale (Nord);84;51.8218;11.7109;6.9;0.35;0;2.1;0.15;3.88;3.4;0.06;0.41;0.8;2.88;0;6.01;4.68;0.51;0;1.81;4.95;0;0;1.86;0;0;4.73;1.36;0;0.5;0.1;6.9;0.7;1.51
1332;Falkenberg,Kr.Rottal-Inn;472;48.4832;12.724;;;;;;;;;;;;;;;;;;;;;;;;;;;;;;;
5779;Zinnwald-Georgenfeld;877;50.7314;13.7516;1.35;0;0;0;0;0;0;0;0;1.41;0.13;0;7.06;1.31;0;0.1;0;0.2;0;0;0.01;0;0;6.51;0;0.05;0;0.26;4.2;0;0.05
6346;Maisach-Galgen;530;48.2072;11.2034;;;;;;;;;;;;;;;;;;;;;;;;;;;;;;;
5676;Wolfsburg (Südwest);82;52.3961;10.6898;;;;;;;;;;;;;;;;;;;;;;;;;;;;;;;
102;Leuchtturm Alte Weser;32;53.8617;8.1266;;;;;;;;;;;;;;;;;;;;;;;;;;;;;;;
2044;Harzgerode;404;51.652;11.1367;6.66;0;0;0.16;2.65;1.5;2.95;0;0;1.11;0.38;0;4.71;4;0;0;3.13;2.78;0;0;0;0;0;3.2;1.66;0;3.11;0;2.9;0.4;1.6
6272;Moorgrund Gräfen-Nitzendorf;283;50.8424;10.2516;;;;;;;;;;;;;;;;;;;;;;;;;;;;;;;
6275;Notzingen;325;48.6707;9.4625;;;;;;;;;;;;;;;;;;;;;;;;;;;;;;;
1266;Erfde;18;54.2989;9.3161;;;;;;;;;;;;;;;;;;;;;;;;;;;;;;;
3093;Lüchow;17;52.9724;11.1374;5.85;1.1;0;3.96;0;0;1.35;0;0;0;0.36;0;0.06;2.68;0;2.48;5.88;0.61;1.86;0;0;0.03;1.58;2.98;0.01;0;2.91;0.03;0.9;0;1.08
642;Brake;1;53.3517;8.4969;;;;;;;;;;;;;;;;;;;;;;;;;;;;;;;
3098;Lüdenscheid;387;51.2452;7.6425;6.46;1.58;0;0.85;3.11;1.63;0.81;0;0;0;0.01;0;1.66;0.3;0;0.56;4.15;2.58;0.2;0;5.15;0;0;0;0;0;0;0.01;0.05;0.06;1.76
433;Berlin-Tempelhof;48;52.4675;13.4021;4.83;0.36;0;1.68;0;0;0.3;0;0;0;0.15;0;3.46;2.28;0;0.7;0.73;5.95;0;0;0;0;0;0;0;0;0;0.28;2.95;0;1.05
430;Berlin-Tegel;36;52.5644;13.3088;4.75;0.15;0;2.01;0;0;0.1;0;0;0;0.03;0;2.26;2.03;0;0.68;0.86;5.73;0.26;0;0;0;0;0.03;0;0.18;0;0.43;3.58;0;0.43
330;Beerfelden;450;49.5617;8.9679;;;;;;;;;;;;;;;;;;;;;;;;;;;;;;;
2618;Kleiner Inselsberg;732;50.8458;10.4803;;;;;;;;;;;;;;;;;;;;;;;;;;;;;;;
4104;Regensburg;365;49.0424;12.1021;0;0;0;0.43;0.61;5.2;0;0;0;1.63;1.05;0;6.8;0.03;1.05;0.51;0;0;0.06;0;0.88;2.9;0;0;1.06;0.6;2.1;0.03;4;0.43;0.7
7341;Offenbach-Wetterpark;119;50.09;8.7862;0;0;0;1.03;7.31;0;1.78;0;0;1.43;3.21;0.16;4.95;1;0.68;0;1.2;5.21;0;0.25;1.26;0;0;0;0.03;0;0.26;0;0.4;0.23;1.58
5133;Twistetal-Mühlhausen;295;51.3343;8.9132;4.96;0.66;0;0.53;6.7;1.06;1.78;0;0;1.48;1.28;0;3.05;1.13;0.28;0;3.21;0.31;0;0;3.16;0;0;0;0.03;0;0.16;0;0.53;0.6;1.28
856;Chieming;551;47.8843;12.5404;3.26;3.35;1;0;0;2.65;0;0.35;0;4.6;0.33;0.48;7.56;0.18;1.4;2.71;0;0;7.46;0.01;1.76;0;0;0;0;3.15;0.01;5.46;1.15;0;5.55
850;Celle;39;52.5959;10.0296;;;;;;;;;;;;;;;;;;;;;;;;;;;;;;;
853;Chemnitz;418;50.7913;12.872;4.51;0;0;0.11;0;3.75;0;0;0;1.38;0;0;7.65;1.25;0.2;0.73;0;7.3;0;0;2.4;0;0;0.1;0;1.51;0;0.35;3.58;0.95;0.06
3513;Neuhaus am Rennweg;845;50.5002;11.1344;0.16;0;0;0;5.45;3.08;0.28;0;0;0;0;0;5.06;0;0;0;0;0.21;0.25;0;0;0;0;0;0.75;0;1.45;0;0;0;0
5705;Würzburg;268;49.7703;9.9577;0;0;0;0.01;7.51;0;0;0;0;0.55;1.26;0;7.56;0.43;0;0;0;5.43;2.46;0;0.48;0;0;0;0.95;0;0.63;0;1.1;3.46;1.28
7412;Neuhütten/Spessart;340;50.0083;9.4239;0;0;0;0.05;6.81;0;0;0;0;0.01;0.23;0;6.36;0.75;0.6;0;0.03;5.26;3.75;0;0.7;0;0;0;0.31;0;0.03;0;0;0.4;0.48
7410;Neu-Ulrichstein;350;50.7519;9.0226;0;0;0;0.1;6.93;1.26;0;0;0;0.13;0.33;0;4.6;0.1;0.28;0;2.33;0.71;0;0;2.36;0;2.23;0;1.15;0;0.76;0;0.23;0.71;1.21
7419;Langenwetzendorf-Göttendorf;390;50.661;12.0757;;;;;;;;;;;;;;;;;;;;;;;;;;;;;;;
2680;Königshofen, Bad;288;50.2841;10.4456;;;;;;;;;;;;;;;;;;;;;;;;;;;;;;;
3897;Pelzerhaken;1;54.0893;10.8773;0.2;0.46;0;5.78;0;0;3.65;0;0.26;0;0.41;0;0;1.43;0;2.91;6.05;0;0;0;0.26;2.81;1.16;0;6.03;0;7.1;0;0.06;0;2
91;Alsfeld-Eifa;300;50.7446;9.345;;;;;;;;;;;;;;;;;;;;;;;;;;;;;;;
4174;Rheine-Bentlage;40;52.2887;7.3866;;;;;;;;;;;;;;;;;;;;;;;;;;;;;;;
4175;Rheinfelden;287;47.5627;7.7936;;;;;;;;;;;;;;;;;;;;;;;;;;;;;;;
1993;Hameln;68;52.0848;9.3896;;;;;;;;;;;;;;;;;;;;;;;;;;;;;;;
3204;Martinroda;427;50.7334;10.8815;4.35;0.01;0;0.4;5.21;4.85;0.91;0.06;0.46;2.78;0.63;0;6.15;0.6;0.28;0;0.28;3.88;0.01;0;0;0;0;6.1;0.58;0;1.53;0;0.3;0.33;0.2
5797;Lichtentanne;353;50.688;12.4328;;;;;;;;;;;;;;;;;;;;;;;;;;;;;;;
5792;Zugspitze;2964;47.4209;10.9847;8.38;2.83;1.21;0;2.9;7.71;6.98;0.56;0;6.7;0.11;1.73;8.36;0.05;1.95;2.95;0;8.65;7.88;2.28;5.43;6.1;0;5.21;0.1;8.18;0;6.61;0.3;0;6.75
3639;Nordholz (Flugplatz);25;53.7647;8.6583;;;;;;;;;;;;;;;;;;;;;;;;;;;;;;;
555;Bochum;101;51.4789;7.2697;5.88;2.43;0;4.18;3.86;0.9;2.53;0;0;0;0.08;0;0.33;0.26;0;0.31;4.51;0.78;0.01;0;5.46;0;0;0;0;0;0.01;0.06;1.03;0.68;1.11
3631;Norderney;11;53.7123;7.1519;0;2.76;0;3.61;0;0;4.08;0;0;0.51;2.65;0;0;0.48;0;2.05;6.66;0;0;0.21;2.51;5.58;0.6;3.13;1.58;0.03;4.33;0;1.46;5.85;0.01
2947;Lennestadt-Theten;286;51.1334;8.0352;5.31;0.81;0;0;3.83;1.38;0.05;0;0;0.01;0;0;2.23;0.36;0.06;0;3.1;4.23;0.56;0;3.81;0;3.38;0;0;0;0;0.01;0.4;0.96;1.46
232;Augsburg;461;48.4254;10.942;0;1.18;0;0.01;5.33;6.18;0;0.01;0;4.83;1.75;0;7.93;0.16;0.31;0.35;0;0.03;3.88;0;0;0;0;0;0.01;1.36;0.53;0.6;3.68;0.2;6.4
1050;Dresden-Hosterwitz;114;51.0221;13.847;4.13;0;0;0.58;0;3.78;0;0;0.03;2.33;1.48;0;7.3;3.63;0.01;0.58;0;7.13;0;0;0;0;0;0;0;1.61;0;3.11;4.8;0.01;0.06
1051;Dresden-Strehlen;119;51.024;13.7737;;;;;;;;;;;;;;;;;;;;;;;;;;;;;;;
3348;Moringen-Lutterbeck;240;51.7209;9.8352;;;;;;;;;;;;;;;;;;;;;;;;;;;;;;;
6109;Grambow-Schwennenz;50;53.3837;14.3728;0.5;0.91;0.1;3.16;0;5.01;0.18;0;0;0;1.31;0;0;2.6;0;2.91;2.48;5.65;0;0;0;0.05;0;0;0;0;0;0.01;1.66;0;0.23
7075;Elsendorf-Horneck;425;48.7021;11.8494;0;0.81;0.06;0;1.03;5.78;0;0.03;0.03;2.71;1.33;0.01;7.83;0;0.38;1.36;0;1.18;1.26;0;1.1;0;0;0;0.51;2.08;0.25;0.93;5.41;0.45;3.68
3340;Montabaur;265;50.4383;7.8061;;;;;;;;;;;;;;;;;;;;;;;;;;;;;;;
2349;Hornisgrinde;1119;48.6136;8.2034;;;;;;;;;;;;;;;;;;;;;;;;;;;;;;;
1197;Ellwangen-Rindelbach;460;48.9895;10.1312;0;0.01;0;0.28;7.16;5.76;0;0;0;1.65;0.51;0.71;7.63;0.75;0;0.53;0;3.51;4.8;0;0;0;0;0;0;0.08;0.01;0.95;2.2;0.43;1.41
1694;Goldberg;58;53.606;12.1033;1.45;0.65;0;2.88;0;0;1.01;0;0;0;1.23;0;0;1.21;0;5.56;6.16;1.18;2.95;0;0;0;0.66;2.28;3.23;0;2.95;0;0.18;0;4.2
1759;Greifswalder Oie;12;54.2437;13.9102;0;1.1;0;4.88;0;5.08;1.63;0;0.68;0;3.33;0;0;1.5;0;4.93;5.33;3.53;0.26;0;0;0;2.76;0;0.66;0;0;0;2.58;0;0
1691;Göttingen;167;51.5003;9.9506;5.41;0.01;0;0.4;0.25;1;0.5;0;0;0.78;0.46;0;5.1;3.1;0;0;1.08;5.25;0;0;0.58;0;0;0.03;0;0;1.31;0;1.61;0;0.61
1757;Greifswald;2;54.0967;13.4056;0;0.08;0;3.08;0;4.48;0.73;0;0.53;0;1.73;0;0;1.56;0;5.26;5.33;3.63;0.35;0;0;0;1.65;0.25;1.4;0;0;0.01;1.6;0;0
1279;Möhrendorf-Kleinseebach;268;49.6497;11.0073;0;0;0;0.26;6.2;5.48;0;0;0;0.03;1.08;0;7.45;0.21;0;0.35;0;4.63;0.43;0;0;0;0;0;0.13;0;0.45;0.05;0.6;0.45;0
619;Borkum-Süderstraße;12;53.5788;6.6703;;;;;;;;;;;;;;;;;;;;;;;;;;;;;;;
142;Altomünster-Maisbrunn;510;48.4059;11.3117;;;;;;;;;;;;;;;;;;;;;;;;;;;;;;;
1270;Erfurt-Weimar;316;50.9829;10.9608;5.51;0;0;0.73;2.88;4.26;3;0;0;1.11;2.48;0;5.33;2.03;1.28;0;1.9;6.63;0.08;0;0.5;0;0;4.26;0.03;0;0.7;0.06;2.63;2.51;0.53
1052;Drewitz bei Burg;80;52.2172;12.1635;;;;;;;;;;;;;;;;;;;;;;;;;;;;;;;
4501;Schmücke;937;50.6546;10.7693;0;0;0;0.01;0.05;4.26;0;0;0;0;0;0;4.36;0;0;0;0.03;0;0;0;0;0;0;0;0.28;0;1.08;0;0;0;0
4466;Schleswig;43;54.5275;9.5486;0;2.23;0.01;5.78;0;0;3.75;0;0.15;0.21;0.48;0;0;0.65;0;0.36;4.06;0;0;0.05;0;6.16;0.15;1.15;1.16;0;5.53;0;0;0.86;1.33
4464;Schleiz;501;50.5679;11.8041;2.21;0;0;0;3.93;4.63;1.06;0;0;1.41;0.11;0;7.6;1.5;2.23;0;0;5.68;0.13;0;1.08;0;0;0.1;0.06;0.6;0.4;0;1.68;1.21;0
5538;Wielenbach (Demollstr.);550;47.8827;11.1576;7.3;3.06;0.36;1.4;3.43;6.98;0.05;0.15;0;5.88;2.25;0.48;8.08;0.25;2.56;2.4;0;0.05;4.26;0.01;0;0;0;0.01;0;3.93;1;5.33;0.48;0;5.58
4508;Schneifelforsthaus;649;50.2988;6.4165;;;;;;;;;;;;;;;;;;;;;;;;;;;;;;;
4911;Straubing;350;48.8275;12.5598;0;0.85;0;0;0.35;4.15;0;0.03;0.03;2.61;2;0;7.63;0;0.58;2.81;0;0.08;0.2;0;2.3;5.9;0;0;0.8;1.2;0.78;0.78;3.98;0;1.98
1473;Freystadt-Oberndorf;436;49.1782;11.3736;0;0.03;0;0;5.16;5.7;0;0;0;1.06;1.18;0;8.01;0.43;0.11;0.91;0;2.9;2.06;0;0;0;0;0;0.1;0.43;0.18;0.46;3.11;0.01;0.11
5750;Zeitz;170;51.0314;12.1495;;;;;;;;;;;;;;;;;;;;;;;;;;;;;;;
6105;Ostenfeld (Rendsburg);14;54.3192;9.8052;0;1.93;0;6.26;0;0;3.98;0;0.08;0.01;0.56;0;0;0.1;0;0.71;4.66;0;0;0;0;5;0;0;1.18;0;4.61;0;0;2.06;0
7187;Freudenberg/Main-Boxtal;193;49.7636;9.4053;;;;;;;;;;;;;;;;;;;;;;;;;;;;;;;
2712;Konstanz;443;47.6774;9.1901;0.48;0.76;0;2.7;2.96;0;3.05;0.25;0;5.31;1.63;1.13;8.15;0.2;2.73;0.75;0;0;1.3;0;2.81;0;0;0.13;0;0.01;2.4;0.96;0;0.35;3.86
1300;Eslohe;351;51.254;8.1563;;;;;;;;;;;;;;;;;;;;;;;;;;;;;;;
1303;Essen-Bredeney;150;51.404;6.9676;6.03;2.5;0;5.23;3.53;1.41;2.53;0;0;0;0.05;0;0.08;0;0;0.71;3.8;0.35;0.23;0.13;4.11;0;0;0.13;0;0;0;0.01;0.63;0;0.58
131;Geringswalde-Altgeringswalde;296;51.088;12.9328;5.26;0;0;0.05;0;5.76;0;0;0;0.2;0.15;0;7.6;2.36;0.01;0;0;7.71;0;0;3.28;0;0;0.86;0;1.33;0;1;4.15;0.26;0
1224;Emmendingen-Mundingen;201;48.1378;7.8351;;;;;;;;;;;;;;;;;;;;;;;;;;;;;;;
5745;Zehdenick;51;52.9664;13.3268;3.81;0.15;0;2.58;0;0;0.05;0;0;0;0.11;0;0.41;1.78;0;3.9;1.01;5.48;1.65;0;0.21;0;0;0;0;0;0.03;1.38;2.01;0;0.05
1832;Großer Arber;1436;49.113;13.1342;0.5;0.68;0;0;0;5;0;0;0;0;0;0;7.61;0;0;3.78;0;1.65;5.33;0.03;6.96;7.61;0;3;0.05;0;0;0;0;0;0
5629;Wittenberg;105;51.8892;12.6445;6.43;0.01;0;2.43;0;0;0.06;0;0.01;0.4;0.31;0;6.66;3.06;0;0;0.6;7.13;0;0;1.15;0;0;0.48;0.01;0.01;0;0.65;3.25;0.41;1.7
403;Berlin-Dahlem (FU);51;52.4578;13.3101;5.16;0.61;0;1.93;0;0;0.6;0;0;0;0.06;0;3.55;2.66;0;0.93;1.33;6.85;0;0;0;0;0;0;0;0;0.01;1.2;3.36;0;1.6
400;Berlin-Buch;60;52.6309;13.5022;;;;;;;;;;;;;;;;;;;;;;;;;;;;;;;
1379;Flensburg (Schäferhaus);41;54.7737;9.3752;;;;;;;;;;;;;;;;;;;;;;;;;;;;;;;
2014;Hannover;55;52.4644;9.6779;5.03;1;0;2.25;0;0;1.13;0;0;0;1.11;0;0;1.78;0;1.78;5.41;0;0.7;0;3.05;0;0.21;0.06;0;0;1.96;0.1;0.61;0;0.41
3836;Ostheim v.d. Rhön;312;50.4538;10.221;;;;;;;;;;;;;;;;;;;;;;;;;;;;;;;
3939;Pirmasens;385;49.1911;7.5875;;;;;;;;;;;;;;;;;;;;;;;;;;;;;;;
1957;Halle-Kröllwitz;93;51.5138;11.9499;5.3;0;0;1.98;0.38;4.91;0.26;0;0.26;1.01;3.28;0;6;4.2;0.51;0;1.33;5.4;0;0;3.76;0;0;3.88;0;0.36;0.36;0;3.58;0.73;1.56
4032;Quedlinburg;142;51.7954;11.1319;6.41;0.7;0;0.13;1.3;0.58;2.11;0.06;0.2;1.56;1.96;0;5.76;4.81;0.95;0.13;3.21;2.46;0;0;2.33;0;0;6.06;1.96;0;1.58;0.28;4.46;0.83;3.25
4377;Sandberg;510;50.3519;10.0032;;;;;;;;;;;;;;;;;;;;;;;;;;;;;;;
4036;Querfurt-Mühle Lodersleben;204;51.3895;11.5414;;;;;;;;;;;;;;;;;;;;;;;;;;;;;;;
4039;Quickborn;13;53.7331;9.8776;0.83;0.73;0;6.5;0;0;4.2;0;0;0;0.11;0;0;0.28;0;5.11;6.8;0;0.16;0;0;0;0;0;0.4;0;4.83;0;0.2;0.01;4.15
7319;Donauwörth-Osterweiler;434;48.7351;10.7415;;;;;;;;;;;;;;;;;;;;;;;;;;;;;;;
3244;Memmingen;615;47.982;10.1384;5.71;1.23;0;1.55;7.01;6.43;0;0.31;0;5.11;1.35;0.03;8.18;0.21;0.7;0.3;0;0.6;3.9;0;0;0;0;0;0.03;1.53;0.01;1.8;0.56;0.01;4.9
5692;Worms;88;49.6051;8.3659;;;;;;;;;;;;;;;;;;;;;;;;;;;;;;;
4485;Schmalkalden, Kurort;296;50.7252;10.454;;;;;;;;;;;;;;;;;;;;;;;;;;;;;;;
4480;Schlüchtern-Herolz;230;50.3444;9.5539;;;;;;;;;;;;;;;;;;;;;;;;;;;;;;;
377;Bergzabern, Bad;252;49.107;7.9967;0;0;0;5.18;7.5;6.43;0;0;0;0;3.75;0.11;7.15;0.05;0;0;0.01;0;0.03;0;0;0;0;0;0.45;0;1.81;0;0;0.26;0.16
2907;Leck;7;54.7903;8.9514;0;2.75;0;4.98;0;0;3.78;0;0.83;0.3;0.41;0;0;2.51;0;0.43;4.25;0;0;0;0.5;5.25;0;2.41;0.98;0;4.55;0;0;2.81;0
2905;Lechfeld;550;48.1849;10.8507;;;;;;;;;;;;;;;;;;;;;;;;;;;;;;;
704;Bremervörde;10;53.4451;9.139;0.95;2.2;0;4.03;0;0;5.5;0;0;0.05;0.38;0;0;0.05;0;5.31;6.7;0;0;0.1;0.65;0;0;0.2;0.25;0;2.66;0;0.28;0;0
15000;Aachen-Orsbach;231;50.7982;6.0244;5.81;0.38;0;4.4;6.5;4.1;6.4;0;0;0.03;0.01;0;1.48;0.03;0.08;0.13;5.35;2.16;0.46;0.71;2.93;0;0;0;0;0;0.01;0.73;1.33;0.63;3.8
701;Bremerhaven;7;53.5332;8.5761;0;2.28;0;5.28;0;0;5.41;0;0;0.08;0.36;0;0;0.88;0;4.83;6.58;0;0;0;0.96;0.01;0;1.36;2.51;0;2.66;0;0.51;0.25;0
390;Berleburg, Bad-Stünzel;610;50.9837;8.3679;;;;;;;;;;;;;;;;;;;;;;;;;;;;;;;
3307;Mittenwald-Buckelwiesen;981;47.4778;11.2654;;;;;;;;;;;;;;;;;;;;;;;;;;;;;;;
399;Berlin-Alexanderplatz;37;52.5205;13.4105;;;;;;;;;;;;;;;;;;;;;;;;;;;;;;;
5490;Wernigerode;234;51.8454;10.7686;6.53;0.98;0;0.03;1.83;0.73;2.05;0.35;0.13;2.26;0.6;0;3.96;4.18;0.55;0.43;4.03;3.18;0;0;7.28;0;0;4.58;0.36;0;1.98;0;3.46;0.51;3.16
2303;Hohn;10;54.3146;9.539;;;;;;;;;;;;;;;;;;;;;;;;;;;;;;;
6310;Karlshagen;1;54.1049;13.8239;0;0.21;0;4.03;0;4.6;0.66;0;0.63;0;2.58;0;0;1.98;0;5.66;5.11;4.1;0.03;0;0;0;1.66;0.01;0.38;0;0;0;2.08;0;0
2306;Hohwacht;8;54.3195;10.6733;;;;;;;;;;;;;;;;;;;;;;;;;;;;;;;
4978;Tann/Rhön;395;50.639;10.0228;;;;;;;;;;;;;;;;;;;;;;;;;;;;;;;
1602;Ohlsbach;176;48.4329;7.9931;;;;;;;;;;;;;;;;;;;;;;;;;;;;;;;
3667;Nürnberg-Netzstall;368;49.4258;11.2538;;;;;;;;;;;;;;;;;;;;;;;;;;;;;;;
3660;Nürburg-Barweiler;485;50.3601;6.8697;6.86;0;0;2.3;7.1;3.93;0.98;0;0;0.06;0.05;0;3.71;0.4;0.66;0;3.11;1.65;0.21;0.68;0;0;0;0;0;0;0.03;0;0.55;0.75;2.36
3668;Nürnberg;314;49.5031;11.0549;0;0;0;0.03;6.23;5.48;0;0;0;0.26;1.16;0;8.08;0.1;0;0.55;0;4.23;1.28;0;0;0;0;0;0.03;0;0.3;0.11;1.71;0.53;0.05
617;Borken in Westfalen;48;51.8728;6.8862;;;;;;;;;;;;;;;;;;;;;;;;;;;;;;;
4548;Selb/Oberfranken-Lauterbach;609;50.2046;12.1435;;;;;;;;;;;;;;;;;;;;;;;;;;;;;;;
4625;Schwerin;59;53.6425;11.3872;1;0.33;0;3.71;0;0;2.38;0;0;0;0.58;0;0;0.96;0;3.25;4.88;0.13;1.71;0;0;0;0;2.2;0.05;0;3.8;0;0.01;0;2.96
3155;Manderscheid-Sonnenhof;413;50.1015;6.8009;0.21;0;0;3.55;5.48;5.5;0;0;0;0.03;;0;2.93;0.11;0.43;0;2.65;1.63;0;0.13;0.1;0;0;0;0;0;1.26;0;0.06;0;0.01
3158;Manschnow;12;52.5468;14.5452;3.43;0.01;0;1.68;0;0.05;0;0;0;0;0.3;0;2.81;3.65;0;0.08;0.13;4.85;0;0;0;0;0;0.01;0;0.35;0;0.73;3.56;0;2.43
5404;Weihenstephan-Dürnast;477;48.4025;11.6946;1.93;2.03;0.03;0;1.76;5.43;0;0;0;4.1;0.75;0.38;7.9;0.01;1.21;1.26;0;0;4.56;0;0;0;0;0;0.11;2.71;0.85;3.16;4.63;0.06;6.38
2578;Kirchdorf/Poel;12;53.9995;11.4341;;;;;;;;;;;;;;;;;;;;;;;;;;;;;;;
2575;Kirchberg/Jagst-Herboldshausen;426;49.1804;9.9799;;;;;;;;;;;;;;;;;;;;;;;;;;;;;;;
3015;Lindenberg;98;52.2085;14.118;3.73;0.1;0;0.61;0;0;0;0;0;0.03;0.21;0;4.8;2.53;0;0.28;0;6.9;0;0;0;0;0;0;0;0.08;0.01;0.46;3.15;0;1.33
1001;Doberlug-Kirchhain;97;51.6451;13.5747;5.18;0;0;2.7;0;0.16;0;0;0;0.08;0.3;0;6.06;2.9;0;0;0;7.08;0;0;3.61;0;0;0;0;1.28;0;0.5;3.96;0.13;1.06
4189;Altheim, Kreis Biberach;533;48.1479;9.4596;1.93;0.01;0;2.05;7.13;6.63;1.83;0.28;0.1;4.3;3.03;2.23;8.3;0.35;0.15;0.46;0;0;0.28;0;0;0;0;0.01;0;0;0.95;0;0.95;0.78;4.4
4261;Rosenheim;444;47.8752;12.1279;3.7;2.63;0.36;0.53;0;5.28;0.1;0.01;0;4.68;1.53;1;7.51;0.06;1.83;2.83;0;0;5.95;0;1.35;0;0;0;0;3.68;0;6.58;1.71;0;5.93
3591;Nideggen-Schmidt;350;50.6744;6.4237;;;;;;;;;;;;;;;;;;;;;;;;;;;;;;;
2597;Kissingen, Bad;282;50.2241;10.0792;0;0;0;0.4;5.2;0;0;0;0;0.16;0.38;0;6.76;0.63;0.08;0;0.1;0.53;0.56;0.85;1.76;0;0;0;1.63;0;1.26;0;0;2.26;0
1346;Feldberg/Schwarzwald;1490;47.8749;8.0038;7.58;0.23;0;1.05;7.68;7.45;0;0;0;0;0.11;3.36;7.76;0;0.36;0;0;6.11;0;0;8.2;3.3;0;0;0.16;0;0;0;0;0;0.21
1228;UFS TW Ems;0;54.1651;6.346;0;1.9;0;4.46;0;0;3.6;0;0;1.3;0.85;0;;;;;;;;;;;;;;;;;;;
13674;Waibstadt;237;49.2942;8.9054;0;0;0;0.93;6.58;6.1;0;0;0;0.25;0.7;0;7.06;0.7;0.3;0;0;0;3.65;0.13;0;0;0;0;0;0;1.03;0.1;0.13;0.9;0.05
4349;Sachsenheim;248;48.9569;9.071;;;;;;;;;;;;;;;;;;;;;;;;;;;;;;;
5664;Wolfach;291;48.2953;8.2391;;;;;;;;;;;;;;;;;;;;;;;;;;;;;;;
1736;Grambek;27;53.5732;10.6795;;;;;;;;;;;;;;;;;;;;;;;;;;;;;;;
2886;Laupheim;539;48.2176;9.9097;;;;;;;;;;;;;;;;;;;;;;;;;;;;;;;
1503;Friesoythe-Altenoythe;6;53.0643;7.9022;0.56;1.86;0;4.75;0;0;5.36;0;0;0;1.63;0;0;0;0;4.26;6.71;0;0;1.31;0.43;1.21;0;1.38;1.56;0;2.53;0;0.2;0;5.21
5541;Wiesbaden-Auringen;263;50.1321;8.3169;;;;;;;;;;;;;;;;;;;;;;;;;;;;;;;
5546;Wiesenburg;187;52.1207;12.4585;6.13;0.11;0;0.58;0;0;0.33;0;0;0;0.33;0;3.9;3.91;0;0.18;0.41;5.73;0;0;1.11;0;0;1.08;0;0;0;0.58;2;0;3.31
979;Dillenburg;314;50.7313;8.2622;2.18;0;0;0.15;3.03;0;2.83;0;0;0.93;0.01;0;2.88;0.05;0;0;3.08;2.23;1.36;0;0.5;0;3.4;0;0;0;0.13;0;2.3;3.21;3.16
656;Braunlage;607;51.7234;10.6021;3.96;0;0;0.05;0.01;0;0;0;0;0;0;0;2.96;0.96;0;0.18;3.36;3.01;0;0;4.96;0;3.41;0.06;0;0;1.45;0;0;0;0.01
183;Arkona;42;54.6792;13.4343;0;2.06;0;5.2;0.05;4.66;2.2;0;0.98;0;2.06;0;0;1.46;0;1.91;5.35;1.66;0.96;0;0;4.41;0;2.23;3.18;0;0;0;1.1;0;0
1504;Fritzlar (Flugplatz);172;51.119;9.2799;0.9;0.3;0;0.2;6.4;1.4;3;0;0;0.5;0;0;5.3;1.1;0.6;0;0.7;0.1;0;0.1;3.1;0;0;0;0;0;1.8;0;1.3;0.6;1.3
2110;Heinsberg-Schleiden;57;51.0412;6.1041;;;;;;;;;;;;;;;;;;;;;;;;;;;;;;;
3086;Lübeck-Blankensee;16;53.8025;10.6988;0.81;0.51;0;4.86;0;0;2.43;0;0;0;0.51;0;0;0.6;0;3.7;6.3;0;0.2;0;0.03;0;1.71;0;1.55;0;4.76;0;0.18;0;2.5
2115;Helgoland;4;54.175;7.892;0;2.6;0;4.85;0;0;3.95;0;0;0.58;0.6;0;0;0.71;0;2.96;3.81;0;0;4.45;2.85;3.56;5.06;3;2.4;0.3;4.06;0;0;5.61;0
3083;Lübben-Blumenfelde;57;51.9267;13.8797;5.28;0.11;0;0.71;0;0;0;0;0;0.01;0.23;0;6.5;2.23;0.01;0;0;7.4;0;0;0.28;0;0;0;0;1.51;0.01;1.26;3.3;0;2.31
2627;Klettwitz;128;51.5554;13.8846;4.6;0;0;1.86;0;0.08;0;0;0;0.05;0.28;0;6.06;2.35;0;0;0;7.1;0;0;1.28;0;0;0;0;1.26;0;0.48;3.9;0;1.13
2629;Kleve;46;51.7612;6.0954;;;;;;;;;;;;;;;;;;;;;;;;;;;;;;;
3875;Parsberg/Oberpfalz-Eglwang;549;49.1509;11.6897;0;0.03;0;0;2.05;5.81;0;0.01;0;0.31;0.83;0;7.6;0.5;0.38;0.5;0;0;0.13;0;0.36;0;0;0;0.28;0.63;0.33;0.01;3.53;0.01;0
7351;Feldberg/Mecklenburg;115;53.3175;13.4175;1.96;1.21;0.35;3.15;0;0;0.08;0;0;0;0.03;0;0.05;1.38;0;5.01;1.8;4.83;0.01;0;0.08;0;2.7;0;0;0;0.01;0.06;0.76;0;1.7
3527;Neukirchen-Hauptschwenda;500;50.8924;9.4053;;;;;;;;;;;;;;;;;;;;;;;;;;;;;;;
5109;Trollenhagen;69;53.5997;13.3039;0.15;0.7;0.03;1.86;0;0.41;0.31;0;0;0;0.71;0;0.4;0.88;0;5.95;4.71;5.55;4.31;0;0;0;3.15;0.13;0.33;0;0;0.03;1.15;0;0.06
3289;Schmieritz-Weltwitz;355;50.7281;11.7838;;;;;;;;;;;;;;;;;;;;;;;;;;;;;;;
3287;Michelstadt-Vielbrunn;453;49.7176;9.0997;0;0;0;0.56;7.41;6.16;0.01;0;0;0.11;0.58;0;7.35;1.15;0.7;0;0;5.01;3.23;0.41;0.2;0;0;0;0;0;0.03;0;0;0;0.31
5100;Trier-Petrisberg;265;49.7479;6.6582;0;0;0;4.48;0;0;0;0;0;0;0.46;0;2.51;0.71;0.46;0;2.36;3.01;0;2.05;0.1;0;0;0;0;0;0.31;0.03;0.23;0;0.33
3284;Michelstadt;240;49.6691;9.0085;;;;;;;;;;;;;;;;;;;;;;;;;;;;;;;
7331;Hermaringen-Allewind;468;48.6096;10.2682;0;0.33;0;0.01;6.86;5.23;2.18;0;0;3.85;1.6;0.28;7.4;0.13;0;0;0;2.65;0.75;0;0;0;0;0;0;0.38;0.15;0;0.96;0.38;5.28
5717;Wuppertal-Buchenhofen;130;51.2248;7.1053;;;;;;;;;;;;;;;;;;;;;;;;;;;;;;;
5715;Wunstorf;57;52.4605;9.4311;;;;;;;;;;;;;;;;;;;;;;;;;;;;;;;
867;Lautertal-Oberlauter;345;50.3067;10.968;0;0;0;0;4.98;1.3;0;0;0;0.06;0.3;0;6.6;0.2;0.01;0;0;2.51;0.45;0;2.13;0;0;0;0.08;0;2.88;0;0.23;1.1;0.25
3442;Nauheim, Bad;149;50.3574;8.7506;;;;;;;;;;;;;;;;;;;;;;;;;;;;;;;
6217;Saarbrücken-Burbach;190;49.2406;6.9351;;;;;;;;;;;;;;;;;;;;;;;;;;;;;;;
2750;Kronach;312;50.2524;11.3208;0;0;0;0.01;0.01;4.35;0;0;0;0.01;0.06;0;5.3;0;0;0;0;3.03;0.13;0;0.28;0;0;0;0.56;0;1.65;0;0.05;1.2;0.2
2023;Harburg;502;48.7918;10.7062;0;0.15;0;0;7.38;4.7;1.43;0;0;2.46;2.11;0.16;8.3;0.35;0.21;0;0;2.55;2.1;0;0;0;0;0;0;1.01;0.1;0.31;2.46;0.33;4.91
1975;Hamburg-Fuhlsbüttel;11;53.6332;9.9881;1.18;0.81;0;6.38;0;0;3.43;0;0;0;0.1;0;0;0.36;0;4.75;6.65;0;0.03;0;0;0;1.68;0;0.95;0;4.9;0;0.15;0;4.35
7403;Leutkirch-Herlazhofen;672;47.7955;10.0324;7.51;2.55;0;2.63;7.43;6.65;0.23;0.11;0;4.85;0.23;0.88;7.86;0.05;3.41;0.7;0;0.3;6.63;0;2.5;0.03;0;0;0;2.86;0.25;2.7;0.68;0;4.71
3904;Perl-Nennig;152;49.5356;6.3804;0;0;0;4.26;0;0.23;0;0;0;0;1.93;0;2.63;1.03;0.11;0;3.5;2.86;0;3.03;1.53;0;0;0;0;0;0.06;0;0.01;0.05;0
880;Cottbus;69;51.776;14.3168;4.4;0;0;1.2;0;0.13;0;0;0;0.01;0.16;0;5.53;1.75;0;0.16;0;6.75;0;0;0.11;0;0;0;0.05;1.93;0.03;0.4;3.91;0.16;0.93
3147;Mallersdorf-Pfaffenberg/Niederbayern;418;48.7726;12.2177;;;;;;;;;;;;;;;;;;;;;;;;;;;;;;;
4763;Sontra;265;51.0607;9.9266;;;;;;;;;;;;;;;;;;;;;;;;;;;;;;;
3231;Meiningen;450;50.5612;10.3771;0;0;0;0.16;6.46;0;1.13;0;0;0.21;0.85;0;5.3;0.55;0;0;0;0;0.1;0;1.2;0;0;0;0.55;0;0.88;0;0;0.46;0
7321;Olbersleben;160;51.1509;11.3319;;;;;;;;;;;;;;;;;;;;;;;;;;;;;;;
3234;Garsebach bei Meißen;157;51.1294;13.4327;;;;;;;;;;;;;;;;;;;;;;;;;;;;;;;
4160;Renningen-Ihinger Hof;478;48.7425;8.924;0;0;0;2.78;7.95;6.53;5.21;0;0;2.61;2.68;1.95;7.71;0.43;0.26;0;0;5.18;0.76;0;0;0;0;0.71;0.46;0;0.95;0.06;1.03;5.88;2.81
1964;Olsdorf;328;49.9445;6.3821;;;;;;;;;;;;;;;;;;;;;;;;;;;;;;;
13710;Landshut-Reithof;490;48.5734;12.2574;;;;;;;;;;;;;;;;;;;;;;;;;;;;;;;
13713;Meinerzhagen-Redlendorf;380;51.0898;7.6289;;;;;;;;;;;;;;;;;;;;;;;;;;;;;;;
1612;Gera-Leumnitz;311;50.8813;12.1289;4.83;0;0;0.86;0;5.01;0;0;0.03;1.73;0.68;0;7.06;1.9;0;0;0;6.91;0.03;0;5.21;0;0;2.33;0.53;1.31;0.63;0.58;2.65;1.46;0.01
7329;Treuen;465;50.5457;12.2852;1.26;0;0;0.01;2.71;5.21;0;0;0;0.08;0.6;0;7.43;0.78;1.51;0.86;0;1.55;0;0;2.88;0;0;0.05;0.03;0;0;0;2.41;0.81;0.11
4169;Rheinau-Memprechtshofen;131;48.6703;7.9939;1.61;0;0;3.48;7.6;0;0.03;0;0;1.33;0.76;1.31;7.45;0.68;0;0;0;0;0;0;1.95;0;0;0;0.75;0;0.71;0.03;0.01;0.31;0.86
320;Heinersreuth-Vollhof;350;49.9667;11.5197;0;0;0;0.48;2.36;4.45;0;0;0;0.13;0.63;0;7.23;0;0;0.3;0;2.43;0.1;0;0;0;0;0;0.05;0;1.63;0;1.03;0.65;0.08
3975;Pommelsbrunn-Mittelburg;522;49.4778;11.5355;0;0;0;0;5.58;4.48;0;0;0;0.03;0.21;0;6.71;0;0;0.13;0;0.05;0.15;0;0;0;0;0;0.03;0;0.15;0.16;1.3;0;0
5800;Zwiesel;615;49.028;13.2385;0;0.5;0;0;;;;;;;;0;7.71;0;0.13;4.1;0;1.96;0;0;6.05;7.36;0;0;0;0;0.03;0;1.28;0;0
7369;Feuchtwangen-Heilbronn;475;49.1623;10.3662;0;0.06;0;0;7.3;5.5;0;0;0;0.88;0.55;0.1;7.63;0.4;0;0.28;0;5.45;3.85;0;0;0;0;0;0;0.01;0.03;0.56;2;0.11;1.4
3621;Reimlingen;435;48.8254;10.5066;;;;;;;;;;;;;;;;;;;;;;;;;;;;;;;
3623;Nörvenich (Flugplatz);111;50.8294;6.6602;6.4;0.1;0;5.2;6.7;3.1;6.3;0.1;0;0.2;2.4;0;2.6;2.7;0.7;0;5.6;0.2;0.7;1.8;0.1;0;0;0;0;0;0.3;0.7;3.8;1.9;4.1
73;Aldersbach-Kriestorf;340;48.6159;13.0506;0;0.1;0.21;0;0;4.06;0;0.23;0;2.98;1.53;0.46;7.76;0.05;0.63;1.75;0;0.03;1.15;0;1.48;1.95;0;0;0.33;0;0.45;1.55;3.5;0;3.08
7105;Siegsdorf-Höll;721;47.8349;12.6549;;;;;;;;;;;;;;;;;;;;;;;;;;;;;;;
71;Albstadt-Badkap;759;48.2155;8.9784;2.76;0.05;0;0.63;7.13;5.9;1.71;0;0;3.35;0.76;1.81;7.48;0.03;0;0.43;0;0.8;0.86;0;0.13;0;0;0;0;0;0;0.16;0.33;3.16;3.16
7394;Wunsiedel-Schönbrunn;622;50.0315;11.9745;0.51;0;0;0;3.13;3.01;0;0;0.11;0.06;0.03;0;7.45;0.35;0;0.58;0;0.48;0.06;0;2.95;0;0;0.13;0.83;0;0.9;0;0.33;0.18;0
78;Alfhausen;65;52.485;7.9119;;;;;;;;;;;;;;;;;;;;;;;;;;;;;;;
7350;Prackenbach-Neuhäusl;588;49.1087;12.8231;;;;;;;;;;;;;;;;;;;;;;;;;;;;;;;
1048;Dresden-Klotzsche;227;51.128;13.7543;4.96;0;0;0.6;0;3.41;0;0;0;1.4;0.2;0;6.73;3.11;0;0.93;0;7.13;0.03;0;0.08;0;0;0;0;0.85;0;1.31;3.86;0;0.13
1684;Görlitz;238;51.1622;14.9506;4.38;0;0;1.96;0;6.7;0;0;0;0.03;0.03;0;7;2.56;2.5;3.13;0;3.11;0.93;0.33;0;0;0;0;0;3.9;0;1.33;5.26;0.63;2.3
5930;Schönhagen (Ostseebad);2;54.641;10.0238;0;0.93;0.06;6.41;0;0;3.88;0;0.35;0.05;0.78;0;0;2.31;0;0.73;5.15;0;0;0;0;1.13;0.06;0;3.71;0;7.15;0;0;0.3;2.31
1766;Münster/Osnabrück;48;52.1346;7.6964;4.25;1.83;0;4.23;2.81;0;2.58;0;0;0;0.85;0;0;0.51;0;0.83;6.11;0;0.8;0.4;4.86;0;0;0.03;0;0;0.26;0.05;1.88;0.08;0.23
4301;Kreuznach, Bad;102;49.8502;7.871;1.58;0;0;1.35;7.18;0;3.83;0;0.1;0.75;3.65;0;5.85;1.1;3.16;0;0.41;6.3;0;0.63;0;0;0;0;0.21;0;0.45;0;0.46;1.75;0.45
4300;Rottweil;588;48.1813;8.6351;1.7;0.08;0;2.7;7.75;6.6;1.03;0;0;3.06;1.65;1.83;7.95;0.1;0;0.03;0;0.38;0.91;0;0.08;0;0;0.3;0.01;0;0.16;0.3;0.33;3.73;3.71
1262;München-Flughafen;446;48.3477;11.8133;3.78;2.43;0.11;0;1.56;5.2;0;0.01;0;4.61;0.45;0.36;8.11;0.08;1.73;1.63;0;0.06;4.06;0;0;0;0;0;0;2.85;0.81;3.23;4.53;0;5.65
662;Braunschweig;81;52.2914;10.4465;5.86;0.95;0;1;0;0;1.03;0;0;0.01;1.45;0;2.41;2.08;0.05;2.11;5.46;1.86;0;0;6.35;0;0;2.68;0;0;1.23;0.25;2.01;0;0.33
3490;Neuenahr, Bad-Ahrweiler;111;50.5346;7.0853;3.93;0;0;3.21;3.33;3.58;4.43;0;0;0.76;0.31;0;3.8;1.4;1.7;0;2.13;1.03;4.83;0.53;0.35;0;0;0;0;0;0;0.11;2.55;4.93;4.2
7389;Heckelberg;82;52.7461;13.8427;3.6;0;0;0.45;0;0;0;0;0;0;0;0;1.8;1.58;0;1.55;1.3;6.31;0.55;0;0;0;0;0;0;0.21;0.08;0.23;3.4;0;0.76
7367;Alfeld;144;51.9644;9.8072;5.18;0.8;0;0.6;0;0.81;0.3;0;0;0;0.13;0;1.66;1.71;0;0.78;2.45;4.51;0;0;4.43;0;0;0.36;0.11;0;0.53;0.03;2.78;0;0.18
1544;Gardelegen;47;52.5129;11.3941;5.96;0.9;0;1.28;0;0.25;1.25;0;0;0;0.2;0;0.86;3.95;0;2.03;3.95;3.06;0.98;0;0;0;0;3.65;0;0;0.46;0.23;0.9;0;0.06
691;Bremen;4;53.0445;8.7985;3.93;1.2;0.01;5.3;0;0;5.6;0;0;0;0.46;0;0;0.15;0;3.05;6.35;0;0;0.66;2.03;0.83;0;0.75;1.98;0;2.95;0;0.98;0.1;0.08
2486;Kaiserslautern;285;49.4242;7.736;;;;;;;;;;;;;;;;;;;;;;;;;;;;;;;
2485;Kaisersbach-Cronhütte;489;48.9171;9.6872;0;0;0;0.01;6.66;6.03;0.03;0;0;0.71;0.1;0.93;6.96;0.16;0;0;0;3.78;4;0;0;0;0;0;0;0;0.1;0.55;1.43;0.38;0.53
3126;Magdeburg;76;52.1029;11.5826;6.21;1.08;0;1.63;0;2.76;1.96;0;0.16;0.18;2.93;0;4.23;5.01;0;0;2.48;5.31;0;0;3.95;0;0;4.85;0.66;0;1.36;0.83;3.33;0;0.85
2483;Kahler Asten;839;51.1803;8.4891;6.51;0;0;0.01;4.21;0.83;0;0;0;0;0;0;3.18;0.01;0;0;2.23;0.31;0;0;0.96;0;6.71;0;0;0;0.03;0;0;0;0
2480;Kahl/Main;107;50.0644;8.9932;;;;;;;;;;;;;;;;;;;;;;;;;;;;;;;
2951;Lenzen/Elbe;20;53.1007;11.4864;5.75;1.11;0.35;3.9;0;0;1.4;0;0;0;0.28;0;0.06;0.85;0;2.75;6.03;1.15;1.76;0;0;2.88;1.38;3.2;0.03;0;2.1;0.03;0.48;0;4.36
1468;Freudenstadt;797;48.4537;8.4091;3.5;0.3;0;1.1;7.3;6.2;2.4;0;0;1.5;0.5;1;7.5;0;0;0;0;2.2;0.13;0;0;0;0;0;0;0;0.18;0;0;0.98;1.2
7395;Gottfrieding;350;48.6596;12.5388;0;1.61;0;0;0.25;4.01;0;0.21;0;3.05;0.66;0;7.91;0;0.25;2.53;0;0.11;0.36;0;1.15;3.28;0;0;0.35;1.58;0.15;2.81;4.66;0;3.23
5064;Tönisvorst;37;51.2898;6.4443;;;;;;;;;;;;;;;;;;;;;;;;;;;;;;;
7396;Hoherodskopf/Vogelsberg;743;50.5084;9.2247;0.03;0;0;0;0;4.58;0;0;0;0;0;0;2.35;0;0;0;0.3;0.16;0.5;0;1;0;1.76;0;0;0;0;0;0;0;0
991;Dippoldiswalde-Reinberg;365;50.9169;13.713;;;;;;;;;;;;;;;;;;;;;;;;;;;;;;;
2708;Kohlgrub, Bad (Rosshof);740;47.6652;11.0804;5.68;3.01;0.6;0;2.2;5.8;0.25;0.03;0;4.2;0.61;0.7;6.01;0.01;2.05;2.31;0;0.21;5.83;0.33;0.16;0;0;0;0;3.35;0;5.56;0.1;0;6.18
7393;Hoyerswerda;116;51.4493;14.2533;4.91;0;0;0.88;0;0.91;0;0;0.05;0.63;0.5;0;5.36;1.88;0.03;0.41;0;6.76;0;0;0;0;0;0;0;1.36;0;0.36;4.46;0;0.31
5149;Gollhofen;308;49.5742;10.1916;;;;;;;;;;;;;;;;;;;;;;;;;;;;;;;
5146;Uelzen;50;52.9413;10.5287;5.1;1.71;0;2.86;0;0.03;0.38;0;0;0;0.11;0;0;1.88;0;2.93;6.03;0;0.5;0;0;0.16;0;0.45;0.05;0;3.9;0.15;0.33;0;0
2704;Köthen (Anhalt);76;51.7515;12.0079;;;;;;;;;;;;;;;;;;;;;;;;;;;;;;;
5142;Ueckermünde;1;53.7444;14.0697;0;0.83;0;2.56;0;4.53;0.2;0;0.21;0;1.08;0;0.21;0.76;0;4.81;1.01;3.48;0;0;0;0.55;0.41;0;0.33;0;0;0;2.4;0;0
2700;Kösching;417;48.8301;11.4872;0;0.16;0;0;3.73;5.8;0;0;0;3.5;1.61;0;8.2;0.15;0.48;0.25;0;0.33;1.25;0;0.45;0;0;0;0.53;0.78;0.95;0.05;3.28;0.35;5.2
4887;Stötten;734;48.6657;9.8646;0;0.41;0.11;0;7.5;6.01;0.48;0;0;1.7;0.3;2.11;7.76;0.16;0;0;0;2.78;2.23;0;0;0;0;0;0;0.18;0;0.46;1.73;0.61;3.45
3402;Münsingen-Apfelstetten;750;48.3851;9.4837;0;0.06;0;0.31;7;5.95;1.58;0;0.01;3.58;0.23;4;7.51;0.13;0;0.06;0;0;0.41;0;0;0;0;0;0.01;0;0.16;0;0.45;0.8;4.56
125;Altenstadt;756;47.8342;10.8667;;;;;;;;;;;;;;;;;;;;;;;;;;;;;;;
5078;Travemünde;2;53.9619;10.8892;;;;;;;;;;;;;;;;;;;;;;;;;;;;;;;
6312;Markt Erlbach-Mosbach;362;49.5314;10.6418;0;0;0;0.05;6.75;5.18;0;0;0;0.75;1.08;0;7.56;0.05;0;0.21;0;5.18;2.68;0;0;0;0;0;0.03;0;0.33;0.1;0.31;1.05;0.08
2410;Ingolstadt (Flugplatz);364;48.7112;11.5362;;;;;;;;;;;;;;;;;;;;;;;;;;;;;;;
6259;Großerlach-Mannenweiler;523;49.021;9.6032;0;0;0;0.06;6.93;6.51;0;0;0;0.3;0.23;0.28;7.26;0.3;0.05;0;0;5.48;4.45;0;0;0;0;0;0;0;0;0.2;2.13;0.65;0.16
6258;Friedrichshafen-Unterraderach;459;47.6845;9.4409;6.08;0.08;0;1.75;7.86;0;2.21;0.13;0;5.45;0.6;1.83;8.13;0.03;3.83;0.85;0;2.15;2.78;0;4.21;0;0;0;0.31;0.11;0.85;1.45;0;0.23;3.6
410;Berlin-Kaniswall;33;52.404;13.7309;4.08;0.01;0;0.56;0;0;0.16;0;0;0;0;0;3.43;2.95;0;0.53;0.78;6.85;0;0;0;0;0;0;0;0.03;0;1.06;2.96;0;1
6314;Nossen;308;51.0507;13.3008;5.1;0;0;0.11;0;5.91;0;0;0;0.83;0.48;0;7.63;3.41;0.06;0.31;0;7.46;0;0;1.08;0;0;0.25;0;2.6;0;2.28;4.38;0.2;0.01
5424;Weimar-Schöndorf;325;51.0179;11.3542;6.03;0.06;0;0.86;0.9;5.15;1.98;0.01;0.3;1.65;1.06;0;7.45;1.56;0.65;0;0.88;7.46;0;0;0.83;0;0;4.85;1.25;0;1.51;0.51;5.15;1.35;0.3
2796;Laage (Flugplatz);40;53.9156;12.279;0.3;0.3;0;;;;;;;;;;;;;;;;;;;;;;;;;;;;
2794;Kyritz;40;52.9363;12.4093;5.45;0.56;0.58;3.46;0;0;0;0;0;0.01;0.15;0;0.6;1.66;0;3.65;4.08;5.3;3.98;0;0;0;0;3.1;0;0;0;0.91;1.18;0;3.65
13696;Waltrop-Abdinghof;68;51.5968;7.4048;;;;;;;;;;;;;;;;;;;;;;;;;;;;;;;
5397;Weiden;440;49.6663;12.1845;0;0;0;0.21;0.26;5.18;0;0;0;0.06;0.96;0;6.51;0.1;1;0;0;0;0;0;0.1;0.01;0;0;0.35;0;0.46;0.05;1.48;0.08;0
3821;Osterfeld;246;51.0873;11.9292;5.66;0;0;0.5;0;5.3;0;0;0.08;1.85;1.6;0;7.68;1.43;0.31;0.01;0;7.83;0;0;4.18;0;0;5.25;0.51;0.91;1.4;1.18;4.51;0.61;0
3946;Plauen;386;50.4819;12.13;1.15;0;0;0.11;4.06;5.03;0;0;0;1.2;1.1;0;7.2;1.33;2.23;0.6;0;2.08;0;0;0.05;0;0;0;0.15;0;0;0;1.63;0.3;0
314;Kubschütz, Kr. Bautzen;232;51.1605;14.5037;;;;;;;;;;;;;;;;;;;;;;;;;;;;;;;
3271;Metten;313;48.8548;12.9187;0;0.41;0;0;0.06;3.76;0;0;0;0.1;1.56;0;6.98;0;0.4;2.66;0;0.8;0.01;0;3.13;5.4;0;0;0;0;0;0;2.8;0;0.08
3278;Metzingen;355;48.5376;9.2733;0.01;0;0;0.91;6.88;6.18;0.15;0.1;0;2.65;0.91;4.71;7.11;0.43;0;0;0;1.78;2.15;0;0.61;0;0;0.01;0.2;0;0;0.38;0.55;2.7;3.5
7368;Eisenach;312;51.0007;10.3621;0.53;0;0;0.05;5.81;4.21;3.11;0;0.01;0.91;0.33;0;5.91;0.58;0.88;0;1.13;5.55;0;0;0;0;0;1.51;0.03;0;1.56;0;0.93;0.35;0.08
5099;Trier-Zewen;132;49.7326;6.6131;;;;;;;;;;;;;;;;;;;;;;;;;;;;;;;
4280;Roth;385;49.2164;11.1036;;;;;;;;;;;;;;;;;;;;;;;;;;;;;;;
4287;Rothenburg ob der Tauber;415;49.3847;10.1732;;;;;;;;;;;;;;;;;;;;;;;;;;;;;;;
3571;Neustadt am Kulm-Filchendorf;452;49.8174;11.8638;0;0;0;0;1.86;4.3;0;0;0;0.03;0.45;0;7.68;0.1;0.08;0.11;0;0.01;0.08;0;0;0;0;0;0.21;0;0.63;0;1.18;0.78;0.06
5097;Tribsees;10;54.0661;12.7675;0;1.08;0;3.81;0;0.05;1.31;0;0.88;0;1.9;0;0;2.25;0;4.53;5.98;2.81;3.43;0;2.53;0;3.48;1.83;2.95;0;0.01;0;0.56;0;0
2667;Köln-Bonn;92;50.8646;7.1575;5.95;0.2;0;5.11;6.26;1.98;2.73;0;0;0.03;0.41;0;2.45;0.76;0;0.15;3.75;2.08;0.76;0;1;0;0.63;0;0;0;0;0.68;1.93;1.05;2.21
7431;Oberhaching-Laufzorn;604;48.0131;11.5525;;;;;;;;;;;;;;;;;;;;;;;;;;;;;;;
368;Bergen;70;52.8152;9.9248;;;;;;;;;;;;;;;;;;;;;;;;;;;;;;;
5275;Waghäusel-Kirrlach;105;49.2447;8.5373;;;;;;;;;;;;;;;;;;;;;;;;;;;;;;;
2932;Leipzig/Halle;131;51.4348;12.2396;6.41;0;0;1.18;0.01;5.2;0.05;0;0;0.25;1.95;0;7.3;3.05;0.41;0;0.13;7.58;0;0;4.53;0;0;2.71;0.1;1.28;0;0.36;3.58;0.55;0.3
3319;Röllbach;239;49.7645;9.2531;;;;;;;;;;;;;;;;;;;;;;;;;;;;;;;
6170;Coschen;40;52.0192;14.7254;;;;;;;;;;;;;;;;;;;;;;;;;;;;;;;
5480;Werl;85;51.5765;7.888;6.25;1.83;0;2.63;3.26;0.38;3.63;0;0;0;0.48;0;2.08;1.05;0.16;0.96;4.3;0.25;0;0.01;6.71;0;0;0;0;0;0.35;0.98;2.98;0.11;0.83
1645;Gilserberg-Moischeid;340;50.9656;9.05;;;;;;;;;;;;;;;;;;;;;;;;;;;;;;;
1721;Gräfenberg-Kasberg;506;49.6639;11.2239;;;;;;;;;;;;;;;;;;;;;;;;;;;;;;;
5871;Hahn;497;49.9462;7.2645;3.18;0;0;2.55;7.93;6.18;0;0;0;0.1;1.03;0;5.08;0.03;1.21;0;0.86;6.36;0;0;0.05;0;0;0;0;0;0.06;0;0.11;0.01;0.28
7432;Wittingen-Vorhop;72;52.6425;10.6631;5.15;0.5;0;0.85;0;0;0;0;0;0;0.3;0;0.05;1.5;0;2.25;5.18;1.4;0.78;0;0.01;0;0;2.65;0;0;2.36;0.28;0.01;0;0
3612;Nienburg;25;52.6711;9.2229;3.23;1.43;0;3.2;0;0;2.83;0;0;0;1.48;0;0;0.41;0;2.15;6.15;0;0.05;0.81;1.48;0;0;0;0.21;0;2.7;0.05;0.83;0;0.98
5371;Wasserkuppe;921;50.4973;9.9428;0.23;0;0;0;3.78;4.83;0;0;0;0;0;0;3.45;0;0.2;0;0;0.76;0.18;0;1.76;0;0;0;0;0;0;0;0;0;0
2290;Hohenpeißenberg;977;47.8009;11.0109;7.63;2.55;0.75;1.01;3.45;6.98;0.3;0.23;0;5.83;1.05;0.58;8.38;0.45;2.53;2.26;0;0.1;7.71;0.36;0.03;0.13;0;0;0;4.81;0.35;6.23;0.66;0.18;5.83
4354;Saldenburg-Entschenreuth;456;48.7832;13.3145;0;0.51;0;0;0;2.76;0;0;0;0.08;0.31;0;7.4;0;0.51;4.86;0;0.13;0;0;3.88;6.11;0;0;0.08;0;0.01;0;2.05;0;0.6
259;Müllheim;273;47.8063;7.6384;;;;;;;;;;;;;;;;;;;;;;;;;;;;;;;
3166;Marienberg;639;50.651;13.1469;2.66;0;0;0;0.06;4.83;0;0;0;0.58;0;0;7.8;1.23;0.06;0.61;0;7.08;0.05;0;0.6;0;0;1.11;0;1.66;0;0.56;3.53;0.45;0.45
3167;Marienberg, Bad;547;50.662;7.9602;4.73;0;0;0;2.98;1.73;0;0;0;0.75;0;0;3.3;0;0;0;2.43;3.46;2.95;0;0.66;0;3.83;0;0;0;0;0;0.21;0.73;1.95
3164;Cölbe, Kr. Marburg-Biedenkopf;182;50.8492;8.7746;;;;;;;;;;;;;;;;;;;;;;;;;;;;;;;
257;Baden-Baden-Geroldsau;240;48.727;8.2458;;;;;;;;;;;;;;;;;;;;;;;;;;;;;;;
154;Amerang-Pfaffing;515;48.0197;12.2924;2.95;3.4;0.23;0;0.06;4.95;0;0.03;0;5.35;0.3;0.41;7.95;0.11;2.05;3.46;0;0;7.38;0;0.1;0;0;0;0;2.65;0.16;5.75;2.16;0;5.26
2201;Hiddensee-Vitte;1;54.575;13.1044;;;;;;;;;;;;;;;;;;;;;;;;;;;;;;;
1424;Frankfurt/Main-Westend;124;50.1269;8.6694;;;;;;;;;;;;;;;;;;;;;;;;;;;;;;;
1580;Geisenheim;110;49.9859;7.9549;2.56;0.06;0;0.25;5.85;0;5.16;0;0;0.66;5.36;0;5.5;1.3;1.3;0;2.26;2.08;0;0.88;0;0;0.03;0;0;0;0.1;0;1.41;2.1;2.6
1587;Gelbelsee;536;48.9481;11.4289;0;0.15;0;0;4.06;5.75;0;0;0;1.46;1.13;0;7.86;0.68;0.53;0.18;0;0.58;0.93;0;0;0;0;0;0.05;0.93;0.11;0.1;3.25;0.1;2.53
3362;Mühlacker;244;48.9721;8.8734;0;0;0;1.65;7.7;6.23;1.56;0;0.25;1.8;2.38;0.53;7.51;0.8;0.56;0;0;1.73;1.78;0;0;0;0;0;0;0;1.08;0;1.46;4.08;0.83
7099;Liebenburg-Othfresen;187;52.0111;10.3966;5.81;0.75;0;0.03;0;0.31;1.46;0;0;0.01;0.4;0;4.13;3.38;0.26;1.93;4.16;3.18;0;0;6.58;0;0;3.18;0;0;0.86;0.06;4.28;0;2.45
2362;Hümmerich;328;50.5652;7.4839;;;;;;;;;;;;;;;;;;;;;;;;;;;;;;;
5029;Tholey;386;49.4738;7.0386;0;0;0;3.61;6.35;7.06;0;0;0;0;1.28;0;4.03;0.78;0.13;0;2.13;3.85;0;0;0.71;0;0;0;0;0;0;0;0;0;0
2429;Itzehoe;21;53.9897;9.5696;0;1.11;0;6.01;0;0;4.3;0;0;0;0.4;0;0;0.95;0;3.63;6.41;0;0;0;0;0.95;0;0;0.86;0;4.56;0;0.01;1.08;1.6
4271;Rostock-Warnemünde;4;54.1802;12.0805;0.06;1.76;0;3.18;0;0;2.8;0;0.75;0;0.6;0;0;0.96;0;3.48;6.25;0.3;0.11;0;0.03;0.66;0.36;2;6;0;3.11;0;0;0;0.56
1358;Fichtelberg;1213;50.4283;12.9535;2.55;0;0;0;1.05;4.03;0;0;0;0;0;0;8.15;1.06;0.01;0.98;0;2.3;0;0;2.1;0;0;6.91;0;0.28;0;0;0.08;0;0
4275;Rotenburg (Wümme);32;53.1288;9.3395;3.5;1.31;0;5.13;0;0;4.11;0;0;0;1.08;0;0;0.35;0;2.96;6.78;0;0.71;1.63;0.4;0;0;0;0;0;3.83;0;0.11;0;0
7298;Hattstedt;5;54.5266;9.0425;0;3.16;0;5.7;0;0;4.85;0;0.18;0.7;0.73;0;0;1.1;0;2.56;4.15;0;0;0.4;2.3;6.48;0;2.23;1.55;0;4.41;0;0;3.01;2.16
1357;Fichtelberg/Oberfranken-Hüttstadl;657;49.9807;11.8376;;;;;;;;;;;;;;;;;;;;;;;;;;;;;;;
460;Berus;363;49.264;6.6868;0;0;0;4.7;2.81;1.48;0;0;0;0;2.15;0;4.5;0.73;0.63;0;2.85;1.86;0;0.61;1.36;0;0;0;0.01;0;0.01;0;0;0;0
1863;Gründau-Breitenborn;258;50.2663;9.1878;;;;;;;;;;;;;;;;;;;;;;;;;;;;;;;
4445;Wernigerode-Schierke;609;51.7658;10.6533;;;;;;;;;;;;;;;;;;;;;;;;;;;;;;;
1869;Grünow;56;53.3153;13.9338;0.33;0.3;0;1.16;0;0.01;0.21;0;0;0;0.38;0;0.03;2.06;0;3.16;0.18;3.95;0;0;0;0.01;0.46;0;0.31;0;0;0;1.8;0;0.7
4371;Salzuflen, Bad;135;52.1042;8.7521;4.53;0.96;0;1.51;0.05;0;0.9;0;0;0;0.6;0;0.13;0.13;0;1.98;6.1;0.16;0.23;0.83;4.66;0;0;0;0;0;0.31;0;0.56;0.31;0.85
161;Andernach;75;50.4238;7.4203;1.23;0.05;0;3.51;0;0.75;4.86;0;0;0.3;1.86;0;4.7;1.06;0.66;0;3.05;1.63;0.26;0.15;0.13;0;1.5;0;0;0;0.01;0;0;0;0
4931;Stuttgart-Echterdingen;371;48.6883;9.2235;0;0;0.06;2.53;7.85;6.51;1.95;0;0.06;2.85;2.15;2.66;7.96;0.43;0;0;0;2.8;1.15;0;0;0;0;0.26;0.58;0;0;0.23;1.31;4.78;2.88
963;Diepholz;39;52.5881;8.3424;4.23;1.56;0;4.58;0.06;0;4.55;0;0;0;2.43;0;0;0;0;1.78;6.31;0;0.51;0.66;2.45;0;0;0.2;0.61;0;1.91;0;0.3;0.16;4.81
1107;Ebrach;346;49.852;10.499;;;;;;;;;;;;;;;;;;;;;;;;;;;;;;;
6196;Selb-Spielberg;610;50.1587;12.0386;;;;;;;;;;;;;;;;;;;;;;;;;;;;;;;
6197;Lügde-Paenbruch;258;51.8664;9.2709;5.93;0.36;0;0.05;0.05;0.4;0.75;0;0;0;0.3;0;0.05;0.86;0;0.73;2.55;1.6;0;0;4.3;0;0;0.1;0;0;0.91;0.3;0.16;0;0.16
1451;Freiburg/Elbe;2;53.8278;9.2486;;;;;;;;;;;;;;;;;;;;;;;;;;;;;;;
6199;Steinhagen-Negast;16;54.2484;13.0418;;;;;;;;;;;;;;;;;;;;;;;;;;;;;;;
5111;Trostberg;559;48.031;12.5396;;;;;;;;;;;;;;;;;;;;;;;;;;;;;;;
2638;Klippeneck;973;48.1054;8.7549;3.61;0.41;0;0.38;7.31;6.6;1.93;0;0;2.05;0.31;1.5;7.7;0.06;0;0.05;0;0.35;0.63;0;1.98;0;0;0.06;0;0;0;0.03;0.45;0.4;3
1981;Hamburg-Neuwiedenthal;3;53.4777;9.8957;;;;;;;;;;;;;;;;;;;;;;;;;;;;;;;
7364;Jeßnitz;74;51.682;12.3042;;;;;;;;;;;;;;;;;;;;;;;;;;;;;;;
4592;Schwandorf;356;49.3278;12.0871;0;0;0;1.16;2.2;5.5;0;0;0;0.53;1.23;0;7.6;0.08;0.45;0.95;0;0;0;0;0.01;0.96;0;0;1.75;0.03;1.9;0.06;4.03;0.01;0
4841;Steinau, Kr. Cuxhaven;1;53.6946;8.8735;;;;;;;;;;;;;;;;;;;;;;;;;;;;;;;
2039;Harzburg, Bad;201;51.9;10.5701;;;;;;;;;;;;;;;;;;;;;;;;;;;;;;;
891;Cuxhaven;5;53.8713;8.7058;0;2;0;4.85;0;0;5.28;0;0;0.01;0.2;0;0;0.61;0;4.6;6.16;0;0;0.03;0.88;1.06;0.25;1.63;1.3;0;5.88;0;0.71;0.63;0
896;Dachwig;170;51.0773;10.8626;;;;;;;;;;;;;;;;;;;;;;;;;;;;;;;
6344;Runkel-Ennerich;168;50.394;8.1423;0;0;0;0.73;7.43;0.06;2.36;0;0;0.96;0.61;0;4.48;0.81;0.23;0;1.88;6.28;0;0;0.2;0;1.51;0;0;0;0.06;0;1.03;3.36;3.21
3545;Neunkirchen-Wellesweiler;236;49.3436;7.2295;;;;;;;;;;;;;;;;;;;;;;;;;;;;;;;
3540;Neunkirchen-Seelscheid-Krawinkel;195;50.8446;7.3714;4.53;0.16;0;5.48;6;2.3;2.46;0;0;0.15;0.03;0;2.66;0.18;0;0;2.93;5.43;0.7;0.2;0.68;0;2.18;0;0;0;0;0.71;0.4;1.75;1.58
4154;Remscheid-Lennep;345;51.1798;7.2506;;;;;;;;;;;;;;;;;;;;;;;;;;;;;;;
7330;Arnsberg-Neheim;159;51.4634;7.978;5.85;1.38;0;1.63;3.21;0.48;2.45;0;0;0.01;0.05;0;2.76;0.86;1.1;0.5;3.71;0;0.38;0.03;5.26;0;0;0;0;0;0;0.36;1.7;0.58;0.63
13700;Gevelsberg-Oberbröking;205;51.3329;7.3411;;;;;;;;;;;;;;;;;;;;;;;;;;;;;;;
3226;Aschersleben-Mehringen;107;51.7259;11.5111;;;;;;;;;;;;;;;;;;;;;;;;;;;;;;;
1605;Genthin;35;52.3875;12.1601;6.08;0.98;0;1.81;0;0;0.31;0;0;0;0.3;0;2.3;4;0;2.25;2.43;6.35;0.98;0;0.43;0;0;4.18;0;0.01;0.06;1.48;2.13;0;1.96
5839;Emden;0;53.3881;7.2287;0;4.05;0;4.31;0;0;5.31;0;0;0;1.18;0;0;0;0;5.53;6.83;0;0;0.1;1.18;2.21;0;2.56;1.08;0;3.48;0;0.23;5.16;1.28
13711;Krölpa-Rockendorf;280;50.6813;11.515;2.81;0;0;0;5.53;5.43;1.1;0.03;0.03;1.83;0.9;0;7.3;1.43;3.15;0;0;6.43;0.06;0;1.66;0;0;3.4;0.63;0.11;0.88;0.13;3.56;2.53;0.46
3987;Potsdam;81;52.3813;13.0622;5.85;0.68;0;1.9;0;0;0.16;0;0;0;0.08;0;3;3.33;0;0.6;0.86;6.06;0.33;0;0.05;0;0;0.25;0;0.2;0;1.35;3.16;0;2.26
953;Deuselbach;481;49.7619;7.0541;3.1;0;0;3.05;7.01;6.16;0;0;0;0;0.03;0;4.16;0.1;0.81;0;0.36;4.15;2.33;0;0.45;0;0.08;0;0;0;0.06;0;0;0;0.13
217;Attenkam;672;47.8774;11.3642;7.5;3.43;0.53;0.8;1.9;6.48;0.21;0.16;0;5.63;2.1;0.23;7.8;0.03;2.96;2.65;0;0.3;7.25;0.01;0;0;0;0;0;4;0.46;6.33;1.05;0;6.03
769;Bückeburg;68;52.2817;9.0889;4.1;1;0;1.2;0.1;0;1.8;0;0;0;0.3;0;0;1.2;0;1.7;5.7;0.1;0.1;0;2.9;0;0;0;0.2;0;1.7;0.1;0.7;0;3.5
2961;Leuchtturm Kiel;5;54.4996;10.2737;0;1.73;0;6.58;0;0;4.2;0;0.55;0.01;0.83;0;0;1.16;0;1.95;5.55;0;0;0;0;2.1;0.21;0;3.83;0;7.36;0;0;0.55;2.6
766;Büchel (Flugplatz);477;50.1746;7.0595;;;;;;;;;;;;;;;;;;;;;;;;;;;;;;;
2968;Köln-Stammheim;43;50.9895;6.9779;;;;;;;;;;;;;;;;;;;;;;;;;;;;;;;
3042;Löhnberg-Obershausen;230;50.5624;8.2391;;;;;;;;;;;;;;;;;;;;;;;;;;;;;;;
6129;Sohland/Spree;290;51.0594;14.4262;;;;;;;;;;;;;;;;;;;;;;;;;;;;;;;
3044;Löningen;22;52.7216;7.7463;3.8;1.51;0;4.76;1.53;0;5.55;0;0;0;2.61;0;0;0;0;4.3;6.83;0;0;2.11;1.3;0;0;0.93;0;0;2.91;0;0.03;0.8;4.4
2323;Bevern, Kr. Holzminden;110;51.8539;9.4964;;;;;;;;;;;;;;;;;;;;;;;;;;;;;;;
4706;Simbach/Inn;360;48.2719;13.0273;1;0;0.2;0;0;3;0;0;0;4.5;0.2;0.1;7.3;0.1;1.7;2;0;0;3.6;0;0;0;0;0;0;1.9;0.1;2.76;2.41;0;4.08
4704;Sigmarszell-Zeisertsweiler;507;47.5776;9.7404;5.28;0;0;0.7;7.35;3.9;0.3;0.1;0;5.81;0.08;1.73;7.33;0.08;3.86;0.2;0;2.8;5.76;0;0.83;0;0;0;0;3.38;0;1.71;0;0;4.9
4703;Sigmaringen-Laiz;580;48.0719;9.1942;;;;;;;;;;;;;;;;;;;;;;;;;;;;;;;
1078;Düsseldorf;37;51.296;6.7686;5.25;2.15;0;6.28;3.81;1.9;5.8;0;0;0;0.41;0;0;0.1;0;1.06;3.78;0.06;0.3;0.01;2.73;0;0;0.85;0;0;0.31;0;1.06;0.23;2.18
1072;Dürkheim, Bad;107;49.4719;8.1929;;;;;;;;;;;;;;;;;;;;;;;;;;;;;;;
5279;Wahlsburg-Lippoldsberg;176;51.6184;9.5761;;;;;;;;;;;;;;;;;;;;;;;;;;;;;;;
4709;Simmern-Wahlbach;445;49.9996;7.5981;;;;;;;;;;;;;;;;;;;;;;;;;;;;;;;
5906;Mannheim;96;49.509;8.5541;0;0;0;0.43;7.13;0;0.13;0;0;0.08;2.11;0;6.8;0.93;0.03;0;0;6.76;0;0.55;0.06;0;0;0;0.01;0;0.91;0;0.05;0.13;0.01
282;Bamberg;240;49.8742;10.9206;0;0;0;0.23;6.68;3.93;0;0;0;0.15;0.8;0;7.26;0.01;0;0;0;3.93;0.63;0;0;0;0;0;0.68;0;0.9;0;0.85;0.6;0.3
3761;Öhringen;276;49.207;9.5175;0;0;0;0.21;7.21;6.55;0;0;0.03;0.11;0.91;0;7.15;0.13;0;0;0;6.46;4.46;0;0;0;0;0;0;0;0.11;0;2;1.56;0.08
4336;Saarbrücken-Ensheim;320;49.2128;7.1077;0;0;0;4.8;6.08;7.01;0;0;0;0;2.08;0;6.05;0.28;0.76;0;0.7;2.48;0;0;0.45;0;0;0;0;0;0;0;0;0;0
5433;Weiskirchen/Saar;380;49.5534;6.812;0.1;0;0;0.9;7.7;6.58;0;0;0;0;1.5;0;2.85;0.38;0;0;2.21;1.18;0;0;0.03;0;0.7;0;0;0;0.05;0;0;0;0
3485;Neuburg/Kammel-Langenhaslach;486;48.3116;10.3771;;;;;;;;;;;;;;;;;;;;;;;;;;;;;;;
3484;Neuburg/Donau (Flugplatz);380;48.7097;11.2096;;;;;;;;;;;;;;;;;;;;;;;;;;;;;;;
3137;Mainz-Lerchenberg (ZDF);195;49.9672;8.2108;;;;;;;;;;;;;;;;;;;;;;;;;;;;;;;
4560;Schotten;265;50.4927;9.1228;0;0;0;0.13;1.25;1.9;0;0;0;0;0;0;2.96;0.06;0.1;0;0.43;0.15;0.36;0;1.41;0;0.21;0;0;0;0;0;0;0.63;0.26
5516;Fehmarn;3;54.5284;11.0605;0;1.48;0;5.13;0;0;4.55;0;0.78;0.01;0.98;0;0.06;1.18;0;1.75;5.48;0;0;0;2.53;4.05;0;0;4.68;0;6.46;0;0.26;0;0.48
1550;Garmisch-Partenkirchen;719;47.4831;11.0623;4.01;2.58;1.18;0;2;4.41;3.63;0.38;0;4.28;0.11;1.03;4.68;0.38;2.3;1.41;0;3.41;5.05;2.18;2.7;1.55;0;0;0;5.03;0;6.48;0.25;0;6.65
4642;Seehausen;21;52.8911;11.7297;5.11;0.85;0;3.35;0;0;0.61;0;0;0;0.06;0;0.2;1.98;0;2.56;5.6;3.06;2.98;0;0;0;0.53;3.83;0;0.03;1.3;0.88;0.2;0;1.28
2559;Kempten;705;47.7233;10.3348;7.16;2.11;0.1;1.16;6.43;6.43;0.2;0.33;0;6.3;1.08;0.15;7.38;0.03;2.85;0.96;0;0;7.3;0.13;0.48;0;0;0;0;3.71;0.36;2.93;0;0;5.86
3031;Lippstadt-Bökenförde;92;51.6334;8.3943;6.43;0.85;0;0.43;2.6;0.15;2.65;0;0;0.01;0.06;0;3.91;1.86;0.78;1.15;3.96;0.11;0.01;0.01;6.93;0;0;0.01;0.1;0;0.15;1.4;4.41;0;0.51
2497;Kall-Sistig;505;50.5016;6.5262;6.91;0;0;3.45;7.56;3.56;4.06;0;0.01;0.41;0.01;0;2.98;0.65;0.18;0;4.06;4.46;3.6;0.15;0.23;0;0;0;0;0;0.05;0;0.21;1.16;2.55
3034;Lobenstein, Bad;500;50.4505;11.635;;;;;;;;;;;;;;;;;;;;;;;;;;;;;;;
535;Blankenrath;417;50.0355;7.3048;0.98;0;0;1.28;5.5;2.95;0;0;0;0;0.35;0;3.15;0;0.56;0;0.08;4.7;0;0.25;0.01;0;0.08;0;0;0;0.01;0;0.23;0;0.25
1411;Birx/Rhön;745;50.5309;10.048;;;;;;;;;;;;;;;;;;;;;;;;;;;;;;;
2252;Bertsdorf-Hörnitz;270;50.8994;14.7456;2.45;0.11;0;0.46;0;3.08;0;0;0.01;1.4;0;0;7.41;2.56;0.25;2.36;0;1.6;0;0;0;0;0;0;0;6.25;0.05;0.75;5.18;0.21;3.23
7343;Deutschneudorf-Brüderwiese;688;50.6199;13.4816;;;;;;;;;;;;;;;;;;;;;;;;;;;;;;;
5158;Ummendorf;162;52.1601;11.1759;6.36;0.48;0;0.58;0;1.05;1.35;0;0;0;1.33;0;2.95;3.71;0;1.61;4.71;3.68;0.6;0;4.91;0;0;4.78;1.35;0;2;0.41;2.95;0;0.88
5014;Worpswede-Hüttenbusch;7;53.2758;8.9857;;;;;;;;;;;;;;;;;;;;;;;;;;;;;;;
1327;Weilerswist-Lommersum;146;50.7119;6.791;6.88;0.16;0;5.58;7.6;3.36;6.06;0;0;0.2;2.28;0;4.23;3.2;1.36;0.01;4.86;0.61;1.65;1.48;0.15;0;0;0;0;0;0.83;0.73;3;3.31;5.5
5017;Teuschnitz;633;50.4002;11.3889;;;;;;;;;;;;;;;;;;;;;;;;;;;;;;;
983;Dillingen/Donau-Fristingen;419;48.5562;10.5599;0;0;0;0;7.21;5.95;1.08;0;0;4.83;1.76;0.11;8.21;0.41;0;0.18;0;2.76;2.3;0;0;0;0;0;0;1.26;0.06;0.36;2.25;0.11;5.38
2773;Kümmersbruck;417;49.4283;11.9016;;;;;;;;;;;;;;;;;;;;;;;;;;;;;;;
4896;Wagersrott;40;54.665;9.8035;;;;;;;;;;;;;;;;;;;;;;;;;;;;;;;
3032;List auf Sylt;26;55.011;8.4125;0;2.26;0.35;4.93;0;0;3.56;0.08;0.75;0.93;0.38;0;0;2.46;0;1.85;2.68;0;0;0;0.03;3.6;4.86;3.06;1.76;0;4.98;0;0.81;3.15;1.88
6266;Pabstorf;112;52.0305;10.9625;;;;;;;;;;;;;;;;;;;;;;;;;;;;;;;
6264;Brilon-Thülen;457;51.4143;8.6498;6.68;1.16;0;0.13;3.85;0.33;1.66;0;0;0.35;0;0;3.81;2.03;0.73;0;3.05;1.03;0;0;3.03;0;0;0;0;0;0;0.01;0.68;0.08;1.26
6265;Wusterwitz;36;52.3613;12.3867;6.23;1.25;0;1.38;0;0;0;0;0;0;0.23;0;3.01;3.46;0;0.83;1.3;6.73;1.16;0;1.01;0;0;3.6;0;0.86;0;1.96;2.6;0;2.93
6262;Schwäbisch Gmünd-Weiler;413;48.7696;9.8738;;;;;;;;;;;;;;;;;;;;;;;;;;;;;;;
6263;Singen;445;47.7738;8.8218;;;;;;;;;;;;;;;;;;;;;;;;;;;;;;;
6260;Ingelfingen-Stachenhausen;385;49.3325;9.7039;;;;;;;;;;;;;;;;;;;;;;;;;;;;;;;
4411;Schaafheim-Schlierbach;155;49.9195;8.9671;0;0;0;0.8;7.35;4.98;0.45;0;0;0;2.66;0;5.98;0.93;0.65;0;0.26;5.3;1.43;0;1.68;0;0;0;0;0;0.2;0;0.2;0.01;0.7
2171;Hersfeld, Bad;272;50.8519;9.7378;0;0;0;0.28;5.3;0.31;1.53;0;0;0;0.01;0;3.31;0.15;0.28;0;1.75;0.16;0;0;4.43;0;0;0;0.01;0;0.15;0;0.2;0.45;0.13
2174;Herzberg;238;51.6254;10.3704;5.4;0.31;0;0.11;0;0.45;0.06;0;0;0;0.15;0;4.68;2.31;0;0;1.68;5.18;0;0;1.71;0;1.76;0.03;0;0;0.28;0;0.05;0;0.1
5280;Wittenborn;35;53.9223;10.2268;;;;;;;;;;;;;;;;;;;;;;;;;;;;;;;
6305;Mühlhausen/Thüringen-Görmar;190;51.2065;10.4948;;;;;;;;;;;;;;;;;;;;;;;;;;;;;;;
420;Berlin-Marzahn;60;52.5447;13.5598;;;;;;;;;;;;;;;;;;;;;;;;;;;;;;;
917;Darmstadt;162;49.8809;8.6779;;;;;;;;;;;;;;;;;;;;;;;;;;;;;;;
427;Berlin-Schönefeld;46;52.3807;13.5306;4.6;0.06;0;1.26;0;0;0.4;0;0;0;0.05;0;3.96;3.53;0;0.98;0.25;6.38;0;0;0;0;0;0;0;0.06;0;1.05;3.23;0;1.33
2074;Hechingen;522;48.3751;8.9801;0.03;0.11;0;2;7.35;6.66;0.53;0.15;0;3.21;0.98;3.48;7.46;0.46;0.1;0.1;0;4.4;1.7;0;0.85;0;0;0.16;0.18;0;0;0.31;0.81;3.73;1.98
3811;Oschatz;150;51.296;13.0928;5.33;0;0;0.9;0;4.88;0.03;0.01;0;0.53;0.63;0;7.18;2.5;0.2;0;0;7.21;0;0;1.5;0;0;0.65;0.46;2.28;0;0.25;4.18;0;0
2600;Kitzingen;188;49.7361;10.1782;;;;;;;;;;;;;;;;;;;;;;;;;;;;;;;
2601;Kleiner Feldberg/Taunus;826;50.2218;8.4469;0.9;0;0;0;6;3.16;0.08;0;0;0;0.18;0;4.18;0;0.46;0;0.18;1.03;4.23;0;0;0;0.01;0;0;0;0;0;0;0;0.03
1420;Frankfurt/Main;100;50.026;8.5215;0;0;0;0.55;7.08;0;0.6;0;0;0;3.66;0;5.55;0.88;0.56;0;2.05;4.31;0;0.71;0.55;0;0;0;0.01;0;0;0;0.2;1.21;1.36
303;Baruth;55;52.0614;13.4996;5.8;0.08;0;1.16;0;0;0.01;0;0;0.03;0.25;0;6.81;3.45;0;0;0.1;7.4;0;0;1.71;0;0;0;0;0.55;0.03;1.3;3.78;0;3
3268;Meßstetten;920;48.1875;8.9938;3.45;0.28;0;0.75;7.4;6.7;2.88;0;0;3.21;0.83;2.25;7.61;0;0.1;0.38;0;0;1.4;0;0;0;0;0;0;0;0.2;0.03;0.6;2.25;3.71
3509;Menz;77;53.102;13.0421;;;;;;;;;;;;;;;;;;;;;;;;;;;;;;;
840;Carlsfeld;897;50.4313;12.6114;0.66;0;0;0;2.88;5.1;0;0;0;0.01;0;0;7.83;0.46;0.11;1.03;0;1.06;0.16;0;1.71;0;0;2.08;0;0.01;0;0;0.03;0.01;0
7373;Borkum-Flugplatz;3;53.5984;6.7024;0;3.75;0;4.2;0;0;3.98;0;0;0.36;1.43;0;0.13;0.38;0.05;2.5;6.73;0;0.45;0;1.66;6.53;3.51;2.23;0.61;0.21;1.33;0;1.61;5.83;1.35
7370;Waldmünchen;499;49.3909;12.6838;0;0;0;0;0.28;3.23;0;0;0;0;0.11;0;7.45;0.06;0.86;2.3;0;1;0;0;4.48;1.05;0;0;0.41;0;0.4;0;2.96;0.01;0
7374;Ahaus;46;52.0814;6.941;4.2;2.55;0;4.76;2.33;0.28;4.91;0;0;0;0.23;0;0;0.28;0;3.08;6.86;0;0;0.85;2.75;0;0;1.4;0;0;0.63;0;0.86;0.55;2.01
7427;Padenstedt (Pony-Park);17;54.019;9.9257;;;;;;;;;;;;;;;;;;;;;;;;;;;;;;;
7424;Piding;458;47.7724;12.9073;1.68;3.31;0.45;0.01;0;0.45;0.21;0;0;3.43;0.01;0.83;5.81;0.08;1.16;3;0;0;5.68;0.56;4;0.38;0;0;0;1.03;0;3.81;0.51;0;4.16
7420;Naumburg/Saale-Kreipitzsch;246;51.1043;11.711;5.83;0.08;0;0.25;0.16;5.15;0.08;0;0.1;0.85;1.78;0;7.48;1.73;0.96;0;0.46;7.5;0;0;4.73;0;0;4.68;0.28;0.25;2.36;0.61;4.28;1.63;0.1
3366;Mühldorf;406;48.2791;12.5024;2.06;2.38;0.06;0;0;3.5;0;0;0;4.78;0.53;0;7.75;0.08;1.75;3.18;0;0;3.68;0;0;0;0;0;0;2.7;0.86;4.21;3.18;0;4.83
7428;Veilsdorf;397;50.4166;10.8156;;;;;;;;;;;;;;;;;;;;;;;;;;;;;;;
2928;Leipzig-Holzhausen;138;51.3151;12.4462;5.61;0;0;0.75;0;4.96;0.05;0;0;0.16;1.25;0;6.56;2.56;0.3;0;0;7.03;0;0;3.81;0;0;2.31;0.13;1.78;0.01;0.55;3.46;0.81;0.21
7106;Bielefeld-Deppendorf;105;52.0714;8.4568;3.56;0.45;0;1;0.65;0;0.1;0;0;0;0.35;0;0;0.11;0;1.08;4.33;0;0;0.78;3.65;0;0;0;0.26;0;0.35;0.51;0.46;0.11;0
6273;Demker;36;52.5072;11.8549;;;;;;;;;;;;;;;;;;;;;;;;;;;;;;;
2925;Leinefelde;356;51.3933;10.3123;5.23;0.15;0;0.3;0.3;1.2;0.6;0;0;1.01;0.06;0;6.1;2;0.8;0;2.23;0.91;0;0;0.41;0;0;0.06;0;0;1.45;0;2.58;0.33;0.61
2564;Kiel-Holtenau;27;54.3761;10.1433;0;0.68;0;4.71;0;0;2.2;0;0.11;0;0.53;0;0;0.25;0;0.25;4.88;0;0;0;0;0.4;0;0;2.65;0;5.85;0;0.03;0.61;0
5335;Waltershausen;348;50.8963;10.5484;;;;;;;;;;;;;;;;;;;;;;;;;;;;;;;
1584;Geisingen;672;47.9241;8.6471;;;;;;;;;;;;;;;;;;;;;;;;;;;;;;;
6163;Dörnick;26;54.1654;10.3519;0;0.55;0;6.05;0;0;3.16;0;0.16;0;0.45;0;0;0.73;0;1.83;5.75;0;0;0;0;0.05;1.33;0;2.86;0;6.6;0;0.01;0;0
4063;Rahden-Kleinendorf;41;52.4461;8.5906;4.51;1.3;0;4.76;0.25;0;4.31;0;0;0;1.38;0;0;0.28;0;1.66;6.6;0;0.05;0;3.8;0;0;0;0.81;0;2.23;0.11;0.78;0;3.26
13777;Helmstedt-Emmerstedt;110;52.2464;10.9589;;;;;;;;;;;;;;;;;;;;;;;;;;;;;;;
5941;Reit im Winkl;685;47.6752;12.4696;;;;;;;;;;;;;;;;;;;;;;;;;;;;;;;
1639;Gießen/Wettenberg;203;50.6017;8.6439;0;0;0;1.4;5.9;0;1.08;0;0;2.13;0.25;0;4.21;0.36;0;0;2.05;3.06;0.83;0;1.86;0;3.18;0;1.03;0;1.21;0;0.88;0.63;1.68
13670;Duisburg-Baerl;25;51.5087;6.7015;;;;;;;;;;;;;;;;;;;;;;;;;;;;;;;
1735;Grainet-Rehberg;628;48.7893;13.6291;0;0.46;0;0;0;4.71;0;0;0;0.01;0;0.18;7.08;0.11;0.46;5.11;0;0.18;0;0;5.6;6.96;0;0;0.16;0;0.63;0;0.58;0;0
4745;Soltau;76;52.9604;9.7931;2.78;1.25;0;3.35;0;0;1.1;0;0;0;0.65;0;0;1.08;0;2.63;6.4;0;0.45;0;0;0.28;0;0.01;0.01;0;3.36;0;0.08;0;0
13675;Hameln-Hastenbeck;77;52.0817;9.4072;;;;;;;;;;;;;;;;;;;;;;;;;;;;;;;
3603;Niederstetten;473;49.3895;9.9666;0;0;0;0.1;5.9;5.5;0;0;0.1;0.1;0.4;0;6.8;0.3;0;0;0;5.2;4.8;0;0;0;0;0;0.3;0;0;0;0.3;0.1;0.1
2814;Merklingen;685;48.5121;9.7645;;;;;;;;;;;;;;;;;;;;;;;;;;;;;;;
757;Buchenbach;445;47.9624;7.998;5.1;0;0;1.21;5.31;5.08;0;0.2;0.03;1.25;0.28;1.81;5.95;0;0;0;0;5.9;0;0;1.31;0;0;0;0;0;0;0.13;0;0;2.66
755;Buchen, Kr. Neckar-Odenwald;340;49.5181;9.3214;0;0;0;0.51;7.43;6.28;0;0;0;0.03;0.75;0;7.11;0.36;0.1;0;0;2.68;4.31;0.15;0;0;0;0;0.06;0;0.98;0;0;1.5;0.35
2812;Lahr;155;48.3647;7.828;0.53;0;0;4.73;6.71;6.26;1.8;0;0;2.83;2.21;0.4;6.33;0.43;0;0;0;7.11;0;0;0.75;0;0;0;0.65;0;0.13;0.16;0;0.15;2.08
1590;Geldern-Walbeck;37;51.4943;6.2463;5.45;3.05;0;7.03;3.08;1.46;5.33;0;0;0;0.03;0;0.01;0;0;2.13;7.4;0.15;0.65;0.58;3.76;0;0;2.38;0;0;0.91;0.01;1.63;0.1;4.21
4605;Schwarzburg;277;50.6444;11.1933;;;;;;;;;;;;;;;;;;;;;;;;;;;;;;;
222;Aue;387;50.5907;12.714;;;;;;;;;;;;;;;;;;;;;;;;;;;;;;;
2211;Hilgenroth;295;50.7371;7.6528;;;;;;;;;;;;;;;;;;;;;;;;;;;;;;;
5347;Warburg;236;51.504;9.1118;5.68;0.55;0;1.13;2.85;1.7;1.86;0;0.01;0.15;0.26;0;4.11;2.9;0.33;0;3.33;1.16;0;0;2.96;0;0;0;0;0;0.9;0;1.63;0;1.08
3379;München-Stadt;515;48.1631;11.5429;5.86;2.65;0.03;0;2.61;5.7;0;0.01;0;5.68;0.35;0.25;8.26;0.08;2.75;1.96;0;0;7.2;0;0;0;0;0;0;2.93;0.55;4.28;3.9;0.01;5.45
3376;Müncheberg;63;52.5176;14.1232;4.53;0.01;0;1.16;0;0;0;0;0;0;0.05;0;3.86;2.98;0;0.45;0.31;5.38;0;0;0;0;0;0;0;0.01;0.01;0.68;3.56;0;1.01
5426;Weinbiet;553;49.3758;8.1213;0;0;0;2.78;7.15;6.55;0;0;0.05;0.01;4.75;0.46;7.06;0.01;1.31;0;0;5.53;0.78;0.58;0;0;0;0;0.36;0;1.43;0;0.01;0.76;0
5349;Waren (Müritz);73;53.5196;12.6654;1.51;0.51;0.11;3.1;0;0;0.6;0;0;0;0.55;0;0.01;1.3;0;5.53;5.63;5.85;3.91;0;0;0;3.06;1.86;0.01;0;0.48;0;0.2;0;4.66
722;Brocken;1134;51.7986;10.6183;6.71;0;0;0;0.31;2.81;0.01;0;0;0;0;0;0.25;0.03;0;0.51;2.63;4.4;0;0;6.98;0;5.13;4.7;0;0;0.01;0;0;0;0.03
151;Amberg-Unterammersricht;383;49.4689;11.8547;;;;;;;;;;;;;;;;;;;;;;;;;;;;;;;
150;Alzey;215;49.7272;8.116;0.1;0;0;1.33;6.71;0;4.66;0;0;0.93;4.51;0.06;7.05;1.35;1.33;0;0.55;1.91;0;2.56;0;0;0;0;1.26;0;0.65;0;0.81;1.43;1.05
5440;Weißenburg-Emetzheim;439;49.0114;10.9319;0;0.11;0;0;6.38;5.48;0.4;0;0;2.15;2.61;0.25;8.05;0.45;0.06;0.13;0;3.16;3.11;0;0;0;0;0;0;0.01;0;0.2;2.7;0.01;0.93
1161;Eichstätt-Landershofen;384;48.8779;11.2347;;;;;;;;;;;;;;;;;;;;;;;;;;;;;;;
603;Bonn-Roleber;159;50.7349;7.1931;6.73;0.05;0;6.33;6.83;2.88;4.8;0;0;0.25;0.5;0;2.85;1.53;0;0;2.98;0.28;3.66;0;0.88;0;0;0;0;0;0;0.93;2.1;0.4;3.98
1207;Elster, Bad-Sohl;560;50.2707;12.2738;;;;;;;;;;;;;;;;;;;;;;;;;;;;;;;
2437;Schleswig-Jagel;21;54.455;9.5194;;;;;;;;;;;;;;;;;;;;;;;;;;;;;;;
1200;Elpersbüttel;3;54.0691;9.0106;0;0;0;6.2;0;0;5.33;0;0;0;0.41;0;0;1.16;0;3.3;4.91;0;0;0.1;0;6.35;0;2.03;2;0;6.16;0;0.43;0.28;3.61
3739;Oberviechtach;596;49.452;12.4366;;;;;;;;;;;;;;;;;;;;;;;;;;;;;;;
5640;Wittmundhafen;8;53.5504;7.6672;;;;;;;;;;;;;;;;;;;;;;;;;;;;;;;
5643;Wittstock-Rote Mühle;66;53.1864;12.4949;;;;;;;;;;;;;;;;;;;;;;;;;;;;;;;
3734;Obersulm-Willsbach;230;49.1279;9.3525;;;;;;;;;;;;;;;;;;;;;;;;;;;;;;;
3730;Oberstdorf;806;47.3986;10.276;5.5;2.56;1.56;0.03;5.11;5.65;0.9;0.35;0;4.58;0;0.81;5.78;0.46;1.86;1.6;0;1.65;5.85;2.38;2.16;2.06;0;0;0.41;4.63;0.01;4.9;0;0;5.41
4692;Siegen (Kläranlage);229;50.8534;7.9966;;;;;;;;;;;;;;;;;;;;;;;;;;;;;;;
1214;Elzach-Fisnacht;440;48.2012;8.1089;1.93;0;0.01;1.01;6.31;5.53;0;0;0;0.08;0.03;1.85;6.36;0.05;0;0;0;6.5;0.01;0;0.98;0;0;0;0.15;0;0;0.21;0;0;1.65
6347;Schonungen-Mainberg;304;50.0578;10.2974;0;0;0;0.68;6.28;5.05;0;0;0;0.08;1.01;0;7.66;0;0;0;0;1.61;0.9;0;2.1;0;0;0;1.03;0;0.73;0;0.1;0.21;0
3196;Marnitz;81;53.3223;11.9319;4.71;0.65;0.58;3.56;0;0;0.35;0;0;0;0.03;0;0.01;0.91;0;3.63;5.56;1.53;2.76;0;0;0;0.1;2.9;0.23;0;2.1;0;0.11;0;2.96
44;Großenkneten;44;52.9335;8.237;3.51;1.11;0;5.55;0;0;3.65;0;0;0;0;0;0;0;0;3.7;6.81;0;0;1.73;2.26;0.01;0;1.45;1.8;0;3.51;0;0;0;2.75
4928;Stuttgart (Schnarrenberg);314;48.8282;9.2;0;0;0;2.73;7.78;6.61;1.35;0;0;2.71;2.83;2.1;7.95;0.65;0;0;0;3.16;1.6;0;0;0;0;0.11;0.31;0;0.28;0;2.03;4.81;2.16
954;UFS Deutsche Bucht;0;54.1667;7.45;0;2.01;0;4.43;0;0;3.65;0;0;0.78;1.4;0;0.05;0.76;0;3.61;3.08;0;3.65;3.76;4.33;3.23;5.96;2.98;3;0.15;3.36;0;0;6.18;0
6186;Nastätten;268;50.1988;7.8647;;;;;;;;;;;;;;;;;;;;;;;;;;;;;;;
1443;Freiburg;236;48.0233;7.8344;3.26;0;0;3.43;7.3;7.21;0.05;0;0;1.36;0.76;1.86;7.58;0.2;0.06;0;0;7.53;0;0;0.06;0;0;0.56;0.73;0;0.03;0.26;0;0.16;2.91
1297;Eschwege;170;51.1834;10.0638;;;;;;;;;;;;;;;;;;;;;;;;;;;;0;1.85;0.18;0.25
4094;Weingarten, Kr. Ravensburg;440;47.8062;9.6206;6.2;0.26;0;3.43;7.65;0;2.2;0.06;0;3.81;1.13;1.53;7.16;0.01;2.78;0.06;0;0.33;3.23;0;1;0;0;0.01;1.05;0.23;1.18;1.33;0.01;0;3.43
2641;Klitzschen bei Torgau;85;51.519;12.9062;;;;;;;;;;;;;;;;;;;;;;;;;;;;;;;
5731;Wutöschingen-Ofteringen;398;47.678;8.3799;;;;;;;;;;;;;;;;;;;;;;;;;;;;;;;
5046;Tirschenreuth-Lodermühl;500;49.8578;12.3541;;;;;;;;;;;;;;;;;;;;;;;;;;;;;;;
1803;Groß Lüsewitz;34;54.0714;12.3238;;;;;;;;;;;;;;;;;;;;;;;;;;;;;;;
4393;Sankt Peter-Ording;5;54.3279;8.603;0;3.35;0;5.8;0;0;4.78;0;0.01;0.83;1.15;0;0;0.75;0;2.73;4.43;0.01;0;0.05;1.95;6.76;0;3.13;2.55;0.11;6.25;0;0;3.8;0.41
3426;Muskau, Bad;125;51.5662;14.6989;3.6;0;0;1.7;0;0.26;0;0;0;0.25;0.21;0;3.61;1.5;0.06;0.75;0;6.33;0.06;0.01;0;0;0;0;0.01;1.23;0.03;0.15;3.35;0;1.41
15444;Ulm-Mähringen;593;48.4418;9.9216;0;0.31;0;0.1;7.71;5.8;0.03;0;0;4.73;1;0.65;8.2;0.15;0.03;0.03;0;0.68;0.95;0;0;0;0;0;0;0.01;0.6;0;0.55;1.03;5.23
4997;Starkenberg-Tegkwitz;193;50.9777;12.3432;;;;;;;;;;;;;;;;;;;;;;;;;;;;;;;
6336;Lohr/Main-Halsbach;285;50.0133;9.6539;;;;;;;;;;;;;;;;;;;;;;;;;;;;;;;
6337;Lüdinghausen-Brochtrup;59;51.7663;7.5193;5.33;2.81;0;5.78;3.4;0.28;2.68;0;0;0;0.36;0;0.05;0.8;0;0.95;5.78;0.9;0.3;0.66;5.2;0;0;0;0;0;0.51;0.45;0.75;0;2.71
4857;Mittelnkirchen-Hohenfelde;1;53.5512;9.6082;;;;;;;;;;;;;;;;;;;;;;;;;;;;;;;
